stop_id,stop_code,stop_name,tts_stop_name,stop_desc,stop_lat,stop_lon,zone_id,stop_url,location_type,parent_station,stop_timezone,wheelchair_boarding,level_id,platform_code,stop_access
n339091847,010004,古城(上行),古城,,39.9061292,116.1842969,,,0,r2605258,,,,,
r2605258,010004,古城,古城,,39.9061423,116.1844475,,,1,,,,,,
n1296102355,010004,古城A出口,古城A出口,,39.9063208,116.1837312,,,2,r2605258,,,,,
n1296102421,010004,古城B出口,古城B出口,,39.9063174,116.1847992,,,2,r2605258,,,,,
n1296102342,010004,古城C出口,古城C出口,,39.9059549,116.1848164,,,2,r2605258,,,,,
n1296102377,010004,古城D出口,古城D出口,,39.9059555,116.1837269,,,2,r2605258,,,,,
n339090514,010006,八宝山(上行),八宝山,,39.9061583,116.2296778,,,0,r1596677,,,,,
r1596677,010006,八宝山,八宝山,,39.9061888,116.2296796,,,1,,,,,,
n1296102379,010006,八宝山出口,八宝山出口,,39.906382,116.2291752,,,2,r1596677,,,,,
n1296102415,010006,八宝山出口,八宝山出口,,39.9059817,116.2291819,,,2,r1596677,,,,,
n1296102340,010006,八宝山出口,八宝山出口,,39.9059894,116.2306839,,,2,r1596677,,,,,
n1296102332,010006,八宝山出口,八宝山出口,,39.9063941,116.2306601,,,2,r1596677,,,,,
n339092170,010007,玉泉路(上行),玉泉路,,39.9061675,116.2468991,,,0,r1596718,,,,,
r1596718,010007,玉泉路,玉泉路,,39.9061931,116.2468996,,,1,,,,,,
n1296155053,010007,玉泉路出口,玉泉路出口,,39.9064012,116.2474143,,,2,r1596718,,,,,
n1296155062,010007,玉泉路出口,玉泉路出口,,39.9060332,116.2474247,,,2,r1596718,,,,,
n1296155071,010007,玉泉路出口,玉泉路出口,,39.9064012,116.2477683,,,2,r1596718,,,,,
n1296155084,010007,玉泉路出口,玉泉路出口,,39.9060412,116.2477704,,,2,r1596718,,,,,
n1296155066,010007,玉泉路出口,玉泉路出口,,39.9060316,116.2458789,,,2,r1596718,,,,,
n1296155049,010007,玉泉路出口,玉泉路出口,,39.9060332,116.246235,,,2,r1596718,,,,,
n1296155075,010007,玉泉路出口,玉泉路出口,,39.9063947,116.2462308,,,2,r1596718,,,,,
n1296155060,010007,玉泉路出口,玉泉路出口,,39.9064012,116.2458768,,,2,r1596718,,,,,
n1296155055,010008,五棵松(上行),五棵松,,39.9061783,116.2680355,,,0,r1598926,,,,,
r1598926,010008,五棵松,五棵松,,39.9062214,116.2680336,,,1,,,,,,
n1298050519,010008,五棵松出口,五棵松出口,,39.9064424,116.26744,,,2,r1598926,,,,,
n1298050528,010008,五棵松出口,五棵松出口,,39.9064325,116.2689917,,,2,r1598926,,,,,
n1298050568,010008,五棵松出口,五棵松出口,,39.9064325,116.2685273,,,2,r1598926,,,,,
n1298050591,010008,五棵松出口,五棵松出口,,39.9064407,116.267029,,,2,r1598926,,,,,
n1298050555,010008,五棵松出口,五棵松出口,,39.9060249,116.2689945,,,2,r1598926,,,,,
n1298050586,010008,五棵松出口,五棵松出口,,39.9060235,116.2685234,,,2,r1598926,,,,,
n1298050575,010008,五棵松出口,五棵松出口,,39.9060371,116.2674335,,,2,r1598926,,,,,
n1298050597,010008,五棵松出口,五棵松出口,,39.9060383,116.2670097,,,2,r1598926,,,,,
n339086745,010009,万寿路(上行),万寿路,,39.9061848,116.2887729,,,0,r1598927,,,,,
r1598927,010009,万寿路,万寿路,,39.9062159,116.2887714,,,1,,,,,,
n1298050530,010009,万寿路出口,万寿路出口,,39.9064238,116.2882123,,,2,r1598927,,,,,
n1298050552,010009,万寿路出口,万寿路出口,,39.9064279,116.2892996,,,2,r1598927,,,,,
n1298050562,010009,万寿路出口,万寿路出口,,39.9064279,116.289764,,,2,r1598927,,,,,
n1298050577,010009,万寿路出口,万寿路出口,,39.9064274,116.2878195,,,2,r1598927,,,,,
n1298050521,010009,万寿路出口,万寿路出口,,39.9060951,116.2897446,,,2,r1598927,,,,,
n1298050572,010009,万寿路出口,万寿路出口,,39.9060963,116.289302,,,2,r1598927,,,,,
n1298050571,010009,万寿路出口,万寿路出口,,39.9060798,116.2882332,,,2,r1598927,,,,,
n1298050531,010009,万寿路出口,万寿路出口,,39.9060949,116.2878071,,,2,r1598927,,,,,
n339086386,900057,公主坟(上行),公主坟,,39.9061436,116.3041253,,,0,r1598955,,,,,
r1598955,900057,公主坟,公主坟,,39.9061762,116.3041253,,,1,,,,,,
n1298076031,900057,公主坟出口,公主坟出口,,39.9070556,116.3028648,,,2,r1598955,,,,,
n339086329,090027,军事博物馆(上行),军事博物馆,,39.9060936,116.3178207,,,0,r1598956,,,,,
r1598956,090027,军事博物馆,军事博物馆,,39.9061218,116.3178241,,,1,,,,,,
n1298058560,090027,军事博物馆A出口,军事博物馆A出口,,39.9063471,116.3161112,,,2,r1598956,,,,,
n1298058630,090027,军事博物馆D出口,军事博物馆D出口,,39.9058811,116.3159403,,,2,r1598956,,,,,
n1298058592,090027,军事博物馆B出口,军事博物馆B出口,,39.9063195,116.3190866,,,2,r1598956,,,,,
n1298058540,090027,军事博物馆C2出口,军事博物馆C2出口,,39.9059112,116.3184148,,,2,r1598956,,,,,
n1298058646,090027,军事博物馆C1出口,军事博物馆C1出口,,39.9059086,116.3188511,,,2,r1598956,,,,,
n339086364,160057,木樨地(上行),木樨地,,39.9060636,116.331503,,,0,r1598954,,,,,
r1598954,160057,木樨地,木樨地,,39.9061161,116.3315051,,,1,,,,,,
n1298058539,160057,木樨地出口,木樨地出口,,39.905787,116.3320216,,,2,r1598954,,,,,
n1298058567,160057,木樨地出口,木樨地出口,,39.9058124,116.330414,,,2,r1598954,,,,,
n1298058590,160057,木樨地出口,木樨地出口,,39.9057824,116.3324608,,,2,r1598954,,,,,
n1298058603,160057,木樨地出口,木樨地出口,,39.9058031,116.3309719,,,2,r1598954,,,,,
n1298058556,160057,木樨地出口,木樨地出口,,39.9064396,116.3325164,,,2,r1598954,,,,,
n1298058529,160057,木樨地出口,木樨地出口,,39.9064396,116.3319853,,,2,r1598954,,,,,
n1298058633,160057,木樨地出口,木樨地出口,,39.9064577,116.3309843,,,2,r1598954,,,,,
n1298058575,160057,木樨地出口,木樨地出口,,39.9064649,116.3304392,,,2,r1598954,,,,,
n339086220,010013,南礼士路(上行),南礼士路,,39.9058369,116.3465708,,,0,r1598987,,,,,
r1598987,010013,南礼士路,南礼士路,,39.9058662,116.3465697,,,1,,,,,,
n1298143225,010013,南礼士路C出口,南礼士路C出口,,39.9056093,116.3471163,,,2,r1598987,,,,,
n1298143253,010013,南礼士路D2出口,南礼士路D2出口,,39.905669,116.3460282,,,2,r1598987,,,,,
n1298143238,010013,南礼士路D1出口,南礼士路D1出口,,39.9056797,116.345569,,,2,r1598987,,,,,
n1298143246,010013,南礼士路A出口,南礼士路A出口,,39.9060963,116.3461501,,,2,r1598987,,,,,
n1673265528,010013,南礼士路B出口,南礼士路B出口,,39.9064091,116.3467814,,,2,r1598987,,,,,
n339086167,020004,复兴门(上行),复兴门,,39.9058006,116.3513203,,,0,r1599345,,,,,
r1599345,020004,复兴门,复兴门,,39.905948,116.3505107,,,1,,,,,,
n533645705,040053,西单(上行),西单,,39.9057212,116.3699189,,,0,r1602850,,,,,
r1602850,040053,西单,西单,,39.9057386,116.3682035,,,1,,,,,,
n1301959258,040053,西单A出口,西单A出口,,39.9061752,116.3687318,,,2,r1602850,,,,,
n1301959252,040053,西单B出口,西单B出口,,39.906566,116.3702379,,,2,r1602850,,,,,
n1301959280,040053,西单C出口,西单C出口,,39.9060806,116.3710554,,,2,r1602850,,,,,
n1301959229,040053,西单出口,西单出口,,39.9054167,116.3688683,,,2,r1602850,,,,,
n5077273885,040053,西单出口,西单出口,,39.9049896,116.3674772,,,2,r1602850,,,,,
n8500051831,040053,西单出口,西单出口,,39.9054638,116.3669418,,,2,r1602850,,,,,
n5077273896,040053,西单出口,西单出口,,39.9061048,116.366936,,,2,r1602850,,,,,
n339084600,010016,天安门西(上行),天安门西,,39.9059375,116.3851643,,,0,r1602849,,,,,
r1602849,010016,天安门西,天安门西,,39.9059702,116.3851622,,,1,,,,,,
n1301959175,010016,天安门西出口,天安门西出口,,39.9063798,116.386552,,,2,r1602849,,,,,
n10152163325,010016,天安门西B出口,天安门西B出口,,39.9064683,116.3860193,,,2,r1602849,,,,,
n1301959251,010016,天安门西A出口,天安门西A出口,,39.906431,116.3843337,,,2,r1602849,,,,,
n1301959208,010016,天安门西C出口,天安门西C出口,,39.9056607,116.3844231,,,2,r1602849,,,,,
n339084700,010017,天安门东(上行),天安门东,,39.9062701,116.3949205,,,0,r1602851,,,,,
r1602851,010017,天安门东,天安门东,,39.9063337,116.3949169,,,1,,,,,,
n1024947212,010017,天安门东A出口,天安门东A出口,,39.9065822,116.3937637,,,2,r1602851,,,,,
n2359088026,010017,天安门东出口,天安门东出口,,39.9054649,116.3944869,,,2,r1602851,,,,,
n4710638759,010017,天安门东出口,天安门东出口,,39.9054978,116.3957693,,,2,r1602851,,,,,
n1301959254,010017,天安门东B出口,天安门东B出口,,39.9067457,116.3961232,,,2,r1602851,,,,,
n339084979,080045,王府井(上行),王府井,,39.9066195,116.4051694,,,0,r1603635,,,,,
r1603635,080045,王府井,王府井,,39.9069496,116.4052789,,,1,,,,,,
n1302986764,080045,王府井出口,王府井出口,,39.9068842,116.404642,,,2,r1603635,,,,,
n1302986800,080045,王府井出口,王府井出口,,39.9063978,116.4046594,,,2,r1603635,,,,,
n1302986771,080045,王府井B1出口,王府井B1出口,,39.906977,116.4058262,,,2,r1603635,,,,,
n1302986770,080045,王府井出口,王府井出口,,39.9078407,116.4054314,,,2,r1603635,,,,,
n1302986772,080045,王府井B3出口,王府井B3出口,,39.9064537,116.4058287,,,2,r1603635,,,,,
n1302986794,080045,王府井B2出口,王府井B2出口,,39.9064647,116.4061439,,,2,r1603635,,,,,
n339085117,050053,东单(上行),东单,,39.9068495,116.4139666,,,0,r8047913,,,,,
r8047913,050053,东单,东单,,39.9068579,116.412626,,,1,,,,,,
n1654257562,050053,东单D出口,东单D出口,,39.9066033,116.4125494,,,2,r8047913,,,,,
n4716204515,050053,东单出口,东单出口,,39.906638,116.4145286,,,2,r8047913,,,,,
n1654257557,050053,东单A出口,东单A出口,,39.907138,116.4126582,,,2,r8047913,,,,,
n7825512449,050053,东单A出口,东单A出口,,39.907141,116.4131074,,,2,r8047913,,,,,
n7825512462,050053,东单A出口,东单A出口,,39.907165,116.4149093,,,2,r8047913,,,,,
n1654257552,050053,东单出口,东单出口,,39.9065699,116.4111565,,,2,r8047913,,,,,
n339085190,020011,建国门(上行),建国门,,39.9071023,116.4287228,,,0,r1603641,,,,,
r1603641,020011,建国门,建国门,,39.9071594,116.4292321,,,1,,,,,,
n1189531268,020011,建国门A出口,建国门A出口,,39.9077677,116.4279738,,,2,r1603641,,,,,
n1195696804,020011,建国门C出口,建国门C出口,,39.9065972,116.4282856,,,2,r1603641,,,,,
n1195696945,020011,建国门B出口,建国门B出口,,39.9076538,116.4307333,,,2,r1603641,,,,,
n339085194,170043,永安里(上行),永安里,,39.9070574,116.4441504,,,0,r1604004,,,,,
r1604004,170043,永安里,永安里,,39.9070982,116.44415,,,1,,,,,,
n9116005228,170043,永安里A1出口,永安里A1出口,,39.9072408,116.4438884,,,2,r1604004,,,,,
n1647463797,170043,永安里A2出口,永安里A2出口,,39.9069499,116.4438805,,,2,r1604004,,,,,
n10299687569,170043,永安里B出口,永安里B出口,,39.9075518,116.4452411,,,2,r1604004,,,,,
n11097391063,170043,永安里B1出口,永安里B1出口,,39.9072262,116.4455603,,,2,r1604004,,,,,
n11097391060,170043,永安里B2出口,永安里B2出口,,39.9069227,116.4456367,,,2,r1604004,,,,,
n1303500733,170043,永安里C出口,永安里C出口,,39.9068314,116.4449714,,,2,r1604004,,,,,
n339085195,100039,国贸(上行),国贸,,39.9069856,116.4532958,,,0,r1604001,,,,,
r1604001,100039,国贸,国贸,,39.9070164,116.4556474,,,1,,,,,,
n3450739378,100039,国贸A出口,国贸A出口,,39.9075196,116.452999,,,2,r1604001,,,,,
n3450739381,100039,国贸B出口,国贸B出口,,39.9075423,116.4545439,,,2,r1604001,,,,,
n3450739380,100039,国贸C出口,国贸C出口,,39.9062912,116.4544957,,,2,r1604001,,,,,
n3450739379,100039,国贸D出口,国贸D出口,,39.90655,116.45225,,,2,r1604001,,,,,
n3450739382,100039,国贸E1出口,国贸E1出口,,39.9078858,116.4546217,,,2,r1604001,,,,,
n3450739383,100039,国贸E2出口,国贸E2出口,,39.9086681,116.4547671,,,2,r1604001,,,,,
n3450739385,100039,国贸F出口,国贸F出口,,39.9084598,116.4568262,,,2,r1604001,,,,,
n3450739384,100039,国贸G出口,国贸G出口,,39.9074945,116.457688,,,2,r1604001,,,,,
n10695100926,100039,国贸2出口,国贸2出口,,39.9055377,116.4552217,,,2,r1604001,,,,,
n339085203,140067,大望路(上行),大望路,,39.9069222,116.4694903,,,0,r1604003,,,,,
r1604003,140067,大望路,大望路,,39.9069399,116.4712272,,,1,,,,,,
n2299602091,140067,大望路C出口,大望路C出口,,39.9066988,116.4700024,,,2,r1604003,,,,,
n1303500882,140067,大望路A出口,大望路A出口,,39.9073896,116.470911,,,2,r1604003,,,,,
n4832116899,140067,大望路D出口,大望路D出口,,39.9073126,116.46912,,,2,r1604003,,,,,
n4832116900,140067,大望路H出口,大望路H出口,,39.9075383,116.4714256,,,2,r1604003,,,,,
n4832116901,140067,大望路E出口,大望路E出口,,39.9092111,116.4713675,,,2,r1604003,,,,,
n4832116902,140067,大望路F出口,大望路F出口,,39.9091335,116.4720078,,,2,r1604003,,,,,
n4832116903,140067,大望路出口,大望路出口,,39.9073722,116.4726846,,,2,r1604003,,,,,
n4832116898,140067,大望路B出口,大望路B出口,,39.9062156,116.4703935,,,2,r1604003,,,,,
n339085253,010024,四惠(上行),四惠,,39.9075901,116.4893805,,,0,r1604002,,,,,
r1604002,010024,四惠,四惠,,39.9075722,116.4893819,,,1,,,,,,
n1303502778,010024,四惠出口,四惠出口,,39.907766,116.4900645,,,2,r1604002,,,,,
n1303502769,010024,四惠出口,四惠出口,,39.9078221,116.4887172,,,2,r1604002,,,,,
n1303502783,010024,四惠出口,四惠出口,,39.9074058,116.4886725,,,2,r1604002,,,,,
n1303502771,010024,四惠出口,四惠出口,,39.9073528,116.4902803,,,2,r1604002,,,,,
n323145029,010025,四惠东(上行),四惠东,,39.9072001,116.5094845,,,0,r1604005,,,,,
r1604005,010025,四惠东,四惠东,,39.9073037,116.5094811,,,1,,,,,,
n1303502776,010025,四惠东A出口,四惠东A出口,,39.9070613,116.5094961,,,2,r1604005,,,,,
n2801043100,010025,四惠东B出口,四惠东B出口,,39.9075472,116.5101781,,,2,r1604005,,,,,
n5442860530,010025,四惠东出口,四惠东出口,,39.9070622,116.5093437,,,2,r1604005,,,,,
n323144883,970003,高碑店(上行),高碑店,,39.9082357,116.525539,,,0,r1604019,,,,,
r1604019,970003,高碑店,高碑店,,39.9082528,116.5255476,,,1,,,,,,
n8571694066,970003,高碑店A出口,高碑店A出口,,39.9078153,116.5249335,,,2,r1604019,,,,,
n8571694065,970003,高碑店A出口,高碑店A出口,,39.9087241,116.5249371,,,2,r1604019,,,,,
n8581526814,970003,高碑店B出口,高碑店B出口,,39.9077917,116.5261687,,,2,r1604019,,,,,
n8581526813,970003,高碑店B出口,高碑店B出口,,39.908702,116.5261665,,,2,r1604019,,,,,
n323144876,970004,传媒大学(上行),传媒大学,,39.9080093,116.5488481,,,0,r1604950,,,,,
r1604950,970004,传媒大学,传媒大学,,39.9080422,116.5488365,,,1,,,,,,
n323144869,970005,双桥(上行),双桥,,39.9090535,116.5709927,,,0,r1604966,,,,,
r1604966,970005,双桥,双桥,,39.9090728,116.5709843,,,1,,,,,,
n5620149738,970005,双桥A出口,双桥A出口,,39.9090161,116.5704192,,,2,r1604966,,,,,
n5620149737,970005,双桥B出口,双桥B出口,,39.9091335,116.5717378,,,2,r1604966,,,,,
n339085362,970006,管庄(上行),管庄,,39.9080653,116.5931419,,,0,r1604965,,,,,
r1604965,970006,管庄,管庄,,39.9080845,116.5931678,,,1,,,,,,
n5578415509,970006,管庄A1出口,管庄A1出口,,39.9084641,116.5926903,,,2,r1604965,,,,,
n2501839005,970006,管庄A2出口,管庄A2出口,,39.9084585,116.5930477,,,2,r1604965,,,,,
n2501839000,970006,管庄A3出口,管庄A3出口,,39.9076697,116.5925925,,,2,r1604965,,,,,
n2501838998,970006,管庄A4出口,管庄A4出口,,39.9076612,116.5930744,,,2,r1604965,,,,,
n2501839004,970006,管庄B1出口,管庄B1出口,,39.9084495,116.593808,,,2,r1604965,,,,,
n2501838997,970006,管庄B2出口,管庄B2出口,,39.907649,116.5937967,,,2,r1604965,,,,,
n321718678,970007,八里桥(上行),八里桥,,39.9050557,116.612788,,,0,r1604990,,,,,
r1604990,970007,八里桥,八里桥,,39.9050518,116.6127053,,,1,,,,,,
n5578415506,970007,八里桥A1出口,八里桥A1出口,,39.9055808,116.6120492,,,2,r1604990,,,,,
n5578415507,970007,八里桥A2出口,八里桥A2出口,,39.9041995,116.6112804,,,2,r1604990,,,,,
n5578379056,970007,八里桥B1出口,八里桥B1出口,,39.9058204,116.6132013,,,2,r1604990,,,,,
n5578415505,970007,八里桥B2出口,八里桥B2出口,,39.9057627,116.6129109,,,2,r1604990,,,,,
n1405951601,970007,八里桥B3出口,八里桥B3出口,,39.9041021,116.6140948,,,2,r1604990,,,,,
n323081594,970008,通州北苑(上行),通州北苑,,39.9026976,116.6314137,,,0,r1605082,,,,,
r1605082,970008,通州北苑,通州北苑,,39.9027423,116.6314069,,,1,,,,,,
n322003736,970009,果园(上行),果园,,39.8922731,116.6407497,,,0,r1605079,,,,,
r1605079,970009,果园,果园,,39.8922857,116.6407547,,,1,,,,,,
n1304785148,970010,九棵树(上行),九棵树,,39.8891486,116.6516162,,,0,r1605080,,,,,
r1605080,970010,九棵树,九棵树,,39.889165,116.651623,,,1,,,,,,
n1304785289,970011,梨园(上行),梨园,,39.8825312,116.6627085,,,0,r1605081,,,,,
r1605081,970011,梨园,梨园,,39.88263744,116.66263436,,,1,,,,,,
n1304785249,970012,临河里(上行),临河里,,39.8742862,116.6728438,,,0,r1605077,,,,,
r1605077,970012,临河里,临河里,,39.8742944,116.6728594,,,1,,,,,,
n339085524,970013,土桥(上行),土桥,,39.8707225,116.6802609,,,0,r1605078,,,,,
r1605078,970013,土桥,土桥,,39.8707455,116.6802742,,,1,,,,,,
n7117305977,070077,花庄(上行),花庄,,39.8553782,116.6890291,,,0,r10558281,,,,,
r10558281,070077,花庄,花庄,,39.8553801,116.6890142,,,1,,,,,,
n9039109139,070077,花庄C出口,花庄C出口,,39.8538323,116.6885027,,,2,r10558281,,,,,
n9039109138,070077,花庄D出口,花庄D出口,,39.854695,116.6882104,,,2,r10558281,,,,,
n9039109137,070077,花庄A出口,花庄A出口,,39.8566305,116.689412,,,2,r10558281,,,,,
n9039109136,070077,花庄B出口,花庄B出口,,39.8565811,116.6901845,,,2,r10558281,,,,,
n10216220692,070079,环球度假区(上行),环球度假区,,39.8479277,116.6735171,,,0,r13131768,,,,,
r13131768,070079,环球度假区,环球度假区,,39.8481659,116.673529,,,1,,,,,,
n10216220693,070079,环球度假区(下行),环球度假区,,39.848076,116.673518,,,0,r13131768,,,,,
n7168707857,070077,花庄(下行),花庄,,39.8553353,116.689175,,,0,r10558281,,,,,
n1304785077,970013,土桥(下行),土桥,,39.8707674,116.6802789,,,0,r1605078,,,,,
n1304785260,970012,临河里(下行),临河里,,39.8743083,116.6728697,,,0,r1605077,,,,,
n1304785044,970011,梨园(下行),梨园,,39.8825642,116.6627402,,,0,r1605081,,,,,
n1304785245,970010,九棵树(下行),九棵树,,39.8891817,116.6516273,,,0,r1605080,,,,,
n1304785214,970009,果园(下行),果园,,39.8923005,116.640758,,,0,r1605079,,,,,
n1304785099,970008,通州北苑(下行),通州北苑,,39.9027181,116.6314443,,,0,r1605082,,,,,
n1304748253,970007,八里桥(下行),八里桥,,39.905088,116.612777,,,0,r1604990,,,,,
n1304730582,970006,管庄(下行),管庄,,39.9081022,116.5931416,,,0,r1604965,,,,,
n1304706912,970005,双桥(下行),双桥,,39.9090931,116.5709806,,,0,r1604966,,,,,
n1304706935,970004,传媒大学(下行),传媒大学,,39.9080712,116.5488417,,,0,r1604950,,,,,
n1303519845,970003,高碑店(下行),高碑店,,39.9082674,116.5255413,,,0,r1604019,,,,,
n1303502781,010025,四惠东(下行),四惠东,,39.9072407,116.5094823,,,0,r1604005,,,,,
n1303500865,010024,四惠(下行),四惠,,39.9077094,116.4893859,,,0,r1604002,,,,,
n1303500901,140067,大望路(下行),大望路,,39.9070008,116.4694938,,,0,r1604003,,,,,
n1303500859,100039,国贸(下行),国贸,,39.9070853,116.4532935,,,0,r1604001,,,,,
n1303500793,170043,永安里(下行),永安里,,39.9071434,116.4441527,,,0,r1604004,,,,,
n1302996714,020011,建国门(下行),建国门,,39.9072104,116.4287246,,,0,r1603641,,,,,
n1302996707,050053,东单(下行),东单,,39.9069604,116.4139671,,,0,r8047913,,,,,
n1302986802,080045,王府井(下行),王府井,,39.9067104,116.4051696,,,0,r1603635,,,,,
n1301959299,010017,天安门东(下行),天安门东,,39.9064123,116.3949123,,,0,r1602851,,,,,
n1301959211,010016,天安门西(下行),天安门西,,39.9060356,116.3851594,,,0,r1602849,,,,,
n1301959286,040053,西单(下行),西单,,39.9058268,116.3699192,,,0,r1602850,,,,,
n1298408190,020004,复兴门(下行),复兴门,,39.9058839,116.3513181,,,0,r1599345,,,,,
n1298058566,010013,南礼士路(下行),南礼士路,,39.9059152,116.346572,,,0,r1598987,,,,,
n1298058595,160057,木樨地(下行),木樨地,,39.9061592,116.3315014,,,0,r1598954,,,,,
n1298058568,090027,军事博物馆(下行),军事博物馆,,39.9061906,116.3178229,,,0,r1598956,,,,,
n1298058615,900057,公主坟(下行),公主坟,,39.9062199,116.3041237,,,0,r1598955,,,,,
n1298050540,010009,万寿路(下行),万寿路,,39.9062637,116.2887734,,,0,r1598927,,,,,
n1298050590,010008,五棵松(下行),五棵松,,39.9062622,116.2680332,,,0,r1598926,,,,,
n1296155057,010007,玉泉路(下行),玉泉路,,39.9062251,116.246901,,,0,r1596718,,,,,
n1296102327,010006,八宝山(下行),八宝山,,39.9062236,116.229682,,,0,r1596677,,,,,
n1296102402,010004,古城(下行),古城,,39.9061512,116.184298,,,0,r2605258,,,,,
n339087731,020001,西直门(外环),西直门,,39.9391324,116.3492602,,,0,r8047959,,,,,
r8047959,020001,西直门,西直门,,39.9392172,116.3492348,,,1,,,,,,
n1253535293,020001,西直门A2出口,西直门A2出口,,39.9400602,116.3485268,,,2,r8047959,,,,,
n1253535195,020001,西直门A1出口,西直门A1出口,,39.9396128,116.3479094,,,2,r8047959,,,,,
n1349005708,020001,西直门B出口,西直门B出口,,39.9396642,116.3506179,,,2,r8047959,,,,,
n1349005738,020001,西直门C出口,西直门C出口,,39.9378225,116.3500661,,,2,r8047959,,,,,
n1349005636,020001,西直门D出口,西直门D出口,,39.9381857,116.3486939,,,2,r8047959,,,,,
n339090184,060033,车公庄(外环),车公庄,,39.9310072,116.3495663,,,0,r8047970,,,,,
r8047970,060033,车公庄,车公庄,,39.9311554,116.3493426,,,1,,,,,,
n1195697020,060033,车公庄B出口,车公庄B出口,,39.9306301,116.3502585,,,2,r8047970,,,,,
n1195696935,060033,车公庄A出口,车公庄A出口,,39.9316056,116.3490962,,,2,r8047970,,,,,
n1767304556,060033,车公庄B出口,车公庄B出口,,39.9318656,116.3501991,,,2,r8047970,,,,,
n339090107,020003,阜成门(外环),阜成门,,39.9223101,116.3499722,,,0,r1650227,,,,,
r1650227,020003,阜成门,阜成门,,39.922313,116.3500666,,,1,,,,,,
n1349005694,020003,阜成门B出口,阜成门B出口,,39.9228958,116.3514256,,,2,r1650227,,,,,
n1349005728,020003,阜成门出口,阜成门出口,,39.9218283,116.3511306,,,2,r1650227,,,,,
n1357572463,020003,阜成门A出口,阜成门A出口,,39.9226588,116.3487709,,,2,r1650227,,,,,
n1501674085,020003,阜成门出口,阜成门出口,,39.9217152,116.3484862,,,2,r1650227,,,,,
n339090100,020004,复兴门(外环),复兴门,,39.9058346,116.35041,,,0,r8047890,,,,,
r8047890,020004,复兴门,复兴门,,39.905948,116.3505107,,,1,,,,,,
n4916795672,020004,复兴门B出口,复兴门B出口,,39.9059604,116.3513214,,,2,r8047890,,,,,
n4916796327,020004,复兴门C出口,复兴门C出口,,39.9056815,116.351316,,,2,r8047890,,,,,
n4916796666,020004,复兴门D出口,复兴门D出口,,39.9056136,116.3511229,,,2,r8047890,,,,,
n4916794978,020004,复兴门A出口,复兴门A出口,,39.9064295,116.3511394,,,2,r8047890,,,,,
n339089932,020005,长椿街(外环),长椿街,,39.8980033,116.3572162,,,0,r1599346,,,,,
r1599346,020005,长椿街,长椿街,,39.8980394,116.3572147,,,1,,,,,,
n1195696789,020005,长椿街A1出口,长椿街A1出口,,39.8981987,116.3562518,,,2,r1599346,,,,,
n1195696908,020005,长椿街A2出口,长椿街A2出口,,39.8982018,116.356619,,,2,r1599346,,,,,
n1195696840,020005,长椿街D1出口,长椿街D1出口,,39.8978739,116.356647,,,2,r1599346,,,,,
n1195697026,020005,长椿街D2出口,长椿街D2出口,,39.8978586,116.3562676,,,2,r1599346,,,,,
n1195696992,020005,长椿街C2出口,长椿街C2出口,,39.8979107,116.3577892,,,2,r1599346,,,,,
n1195696817,020005,长椿街C1出口,长椿街C1出口,,39.8979199,116.3581726,,,2,r1599346,,,,,
n1195697032,020005,长椿街B1出口,长椿街B1出口,,39.8982508,116.3581566,,,2,r1599346,,,,,
n1195696915,020005,长椿街B2出口,长椿街B2出口,,39.8982452,116.3577753,,,2,r1599346,,,,,
n1093985706,020006,宣武门(外环),宣武门,,39.8983368,116.3680341,,,0,r8047906,,,,,
r8047906,020006,宣武门,宣武门,,39.8983866,116.3680141,,,1,,,,,,
n1195696984,020006,宣武门H出口,宣武门H出口,,39.897726,116.3677423,,,2,r8047906,,,,,
n10816367472,020006,宣武门E出口,宣武门E出口,,39.8991979,116.3675241,,,2,r8047906,,,,,
n10816367471,020006,宣武门出口,宣武门出口,,39.8988594,116.3676314,,,2,r8047906,,,,,
n1195696803,020006,宣武门C2出口,宣武门C2出口,,39.8982257,116.3686253,,,2,r8047906,,,,,
n1195697008,020006,宣武门B2出口,宣武门B2出口,,39.8985849,116.3686187,,,2,r8047906,,,,,
n1195696888,020006,宣武门C1出口,宣武门C1出口,,39.8982432,116.3690706,,,2,r8047906,,,,,
n1195696822,020006,宣武门B1出口,宣武门B1出口,,39.8985999,116.3690346,,,2,r8047906,,,,,
n339089806,020007,和平门(外环),和平门,,39.8986445,116.3779968,,,0,r1601339,,,,,
r1601339,020007,和平门,和平门,,39.8986925,116.3777751,,,1,,,,,,
n1195696977,020007,和平门D1出口,和平门D1出口,,39.8985067,116.3774666,,,2,r1601339,,,,,
n1195696959,020007,和平门D2出口,和平门D2出口,,39.8985042,116.3770409,,,2,r1601339,,,,,
n1195696887,020007,和平门A1出口,和平门A1出口,,39.8988286,116.3770206,,,2,r1601339,,,,,
n1195696793,020007,和平门A2出口,和平门A2出口,,39.898836,116.3774448,,,2,r1601339,,,,,
n1195696913,020007,和平门C1出口,和平门C1出口,,39.8985522,116.3789496,,,2,r1601339,,,,,
n1195696938,020007,和平门B1出口,和平门B1出口,,39.8988909,116.3789236,,,2,r1601339,,,,,
n1195696783,020007,和平门B2;C2出口,和平门B2;C2出口,,39.8991185,116.3784354,,,2,r1601339,,,,,
n701230220,020008,前门(外环),前门,,39.8986819,116.3925008,,,0,r13536003,,,,,
r13536003,020008,前门,前门,,39.8982814,116.3929416,,,1,,,,,,
n1195696762,020008,前门A出口,前门A出口,,39.8990173,116.3928151,,,2,r13536003,,,,,
n1195696865,020008,前门B出口,前门B出口,,39.8985538,116.3928476,,,2,r13536003,,,,,
n1195696786,020008,前门C出口,前门C出口,,39.8984876,116.3905252,,,2,r13536003,,,,,
n9327480046,020008,前门D出口,前门D出口,,39.8989819,116.390484,,,2,r13536003,,,,,
n2048053088,020008,前门E1出口,前门E1出口,,39.8982669,116.3937242,,,2,r13536003,,,,,
n2048053087,020008,前门E1出口,前门E1出口,,39.8982197,116.393189,,,2,r13536003,,,,,
n2048053079,020008,前门E3出口,前门E3出口,,39.8980262,116.3929908,,,2,r13536003,,,,,
n9634711061,020008,前门I出口,前门I出口,,39.8972171,116.3925596,,,2,r13536003,,,,,
n339088299,020009,崇文门(外环),崇文门,,39.899616,116.4106985,,,0,r1601338,,,,,
r1601338,020009,崇文门,崇文门,,39.8997371,116.4119567,,,1,,,,,,
n1359090010,020009,崇文门出口,崇文门出口,,39.9001656,116.4131529,,,2,r1601338,,,,,
n1300399166,020009,崇文门出口,崇文门出口,,39.8998449,116.4097008,,,2,r1601338,,,,,
n1300399159,020009,崇文门出口,崇文门出口,,39.8994361,116.4097673,,,2,r1601338,,,,,
n1300399201,020009,崇文门出口,崇文门出口,,39.8998514,116.410102,,,2,r1601338,,,,,
n1300399186,020009,崇文门B出口,崇文门B出口,,39.8998755,116.4112593,,,2,r1601338,,,,,
n1300399137,020009,崇文门出口,崇文门出口,,39.8998845,116.4116529,,,2,r1601338,,,,,
n1300399127,020009,崇文门出口,崇文门出口,,39.8994702,116.4116531,,,2,r1601338,,,,,
n1429554243,020009,崇文门出口,崇文门出口,,39.8986748,116.4125737,,,2,r1601338,,,,,
n1429554241,020009,崇文门出口,崇文门出口,,39.8983398,116.4125776,,,2,r1601338,,,,,
n339089407,020010,北京站(外环),北京站,,39.9035383,116.4209558,,,0,r1601341,,,,,
r1601341,020010,北京站,北京站,,39.9035987,116.4209544,,,1,,,,,,
n1195696838,020010,北京站B出口,北京站B出口,,39.9038293,116.4214672,,,2,r1601341,,,,,
n1189531292,020010,北京站D出口,北京站D出口,,39.9033166,116.4198967,,,2,r1601341,,,,,
n1189531093,020010,北京站A出口,北京站A出口,,39.9038125,116.4203187,,,2,r1601341,,,,,
n6058359595,020010,北京站C出口,北京站C出口,,39.9032694,116.4221931,,,2,r1601341,,,,,
n339089391,020011,建国门(外环),建国门,,39.907176,116.4296732,,,0,r8047966,,,,,
r8047966,020011,建国门,建国门,,39.9071594,116.4292321,,,1,,,,,,
n339089289,060043,朝阳门(外环),朝阳门,,39.9230493,116.4284953,,,0,r1650484,,,,,
r1650484,060043,朝阳门,朝阳门,,39.9230647,116.4279504,,,1,,,,,,
n1195697035,060043,朝阳门A出口,朝阳门A出口,,39.9234877,116.4295123,,,2,r1650484,,,,,
n7893337710,060043,朝阳门F出口,朝阳门F出口,,39.9242088,116.4271732,,,2,r1650484,,,,,
n339089288,020013,东四十条(外环),东四十条,,39.9322848,116.4280954,,,0,r1650483,,,,,
r1650483,020013,东四十条,东四十条,,39.932287,116.4280068,,,1,,,,,,
n1114100905,020013,东四十条A出口,东四十条A出口,,39.9327602,116.4270835,,,2,r1650483,,,,,
n6095096837,020013,东四十条B出口,东四十条B出口,,39.9328936,116.4285199,,,2,r1650483,,,,,
n922948491,020013,东四十条C出口,东四十条C出口,,39.9319734,116.4290011,,,2,r1650483,,,,,
n1114100902,020013,东四十条D出口,东四十条D出口,,39.9319539,116.4268918,,,2,r1650483,,,,,
n294123182,980021,东直门(外环),东直门,,39.9397065,116.4277718,,,0,r1607096,,,,,
r1607096,980021,东直门,东直门,,39.9398861,116.4281041,,,1,,,,,,
n1195696997,980021,东直门A出口,东直门A出口,,39.9405574,116.4269333,,,2,r1607096,,,,,
n3562647527,980021,东直门C出口,东直门C出口,,39.9394825,116.4288791,,,2,r1607096,,,,,
n1354470995,980021,东直门D出口,东直门D出口,,39.9399623,116.4288698,,,2,r1607096,,,,,
n1195696962,980021,东直门D出口,东直门D出口,,39.9388359,116.4270844,,,2,r1607096,,,,,
n4116335545,980021,东直门E出口,东直门E出口,,39.9399608,116.429155,,,2,r1607096,,,,,
n4917775894,980021,东直门B1出口,东直门B1出口,,39.9399647,116.4290147,,,2,r1607096,,,,,
n4917776043,980021,东直门B2出口,东直门B2出口,,39.9399665,116.4286917,,,2,r1607096,,,,,
n10655378371,980021,东直门出口,东直门出口,,39.9392026,116.4267694,,,2,r1607096,,,,,
n8283682608,980021,东直门C出口,东直门C出口,,39.9394766,116.4286925,,,2,r1607096,,,,,
n294122490,020015,雍和宫(外环),雍和宫,,39.947986,116.4115386,,,0,r1650485,,,,,
r1650485,020015,雍和宫,雍和宫,,39.9479275,116.4115432,,,1,,,,,,
n1363488715,020015,雍和宫C出口,雍和宫C出口,,39.9476519,116.4107869,,,2,r1650485,,,,,
n1363488717,020015,雍和宫B出口,雍和宫B出口,,39.9475512,116.4122738,,,2,r1650485,,,,,
n1195696910,020015,雍和宫A出口,雍和宫A出口,,39.948202,116.4106272,,,2,r1650485,,,,,
n339088654,020016,安定门(外环),安定门,,39.9477287,116.402067,,,0,r1650486,,,,,
r1650486,020016,安定门,安定门,,39.9476674,116.4020676,,,1,,,,,,
n1195696769,020016,安定门B出口,安定门B出口,,39.948445,116.4025204,,,2,r1650486,,,,,
n1195696868,020016,安定门A出口,安定门A出口,,39.9485025,116.4013262,,,2,r1650486,,,,,
n339088788,020017,鼓楼大街(外环),鼓楼大街,,39.9476038,116.3879152,,,0,r7842110,,,,,
r7842110,020017,鼓楼大街,鼓楼大街,,39.947544,116.3879183,,,1,,,,,,
n4253043924,020017,鼓楼大街A1出口,鼓楼大街A1出口,,39.9478445,116.3863617,,,2,r7842110,,,,,
n4253043921,020017,鼓楼大街B出口,鼓楼大街B出口,,39.9478423,116.3887168,,,2,r7842110,,,,,
n4253043929,020017,鼓楼大街F出口,鼓楼大街F出口,,39.9472561,116.3886701,,,2,r7842110,,,,,
n4253043925,020017,鼓楼大街E出口,鼓楼大街E出口,,39.9472665,116.3870718,,,2,r7842110,,,,,
n4253043920,020017,鼓楼大街A2出口,鼓楼大街A2出口,,39.9478519,116.3873099,,,2,r7842110,,,,,
n290598399,020018,积水潭(外环),积水潭,,39.947388,116.3670499,,,0,r1650229,,,,,
r1650229,020018,积水潭,积水潭,,39.947325,116.3670609,,,1,,,,,,
n1190962239,020018,积水潭A出口,积水潭A出口,,39.9476078,116.3663414,,,2,r1650229,,,,,
n10137874029,020018,积水潭B1出口,积水潭B1出口,,39.9477681,116.3671741,,,2,r1650229,,,,,
n8018444449,020018,积水潭A出口,积水潭A出口,,39.9478302,116.3681014,,,2,r1650229,,,,,
n10727013837,020018,积水潭D出口,积水潭D出口,,39.9467623,116.3662455,,,2,r1650229,,,,,
n10150958828,020018,积水潭F出口,积水潭F出口,,39.9447042,116.3656975,,,2,r1650229,,,,,
n10150958829,020018,积水潭G1出口,积水潭G1出口,,39.9466602,116.3645899,,,2,r1650229,,,,,
n1349005765,020001,西直门(内环),西直门,,39.9391361,116.3493977,,,0,r8047959,,,,,
n1349005609,020018,积水潭(内环),积水潭,,39.9472675,116.3670584,,,0,r1650229,,,,,
n1349201959,020017,鼓楼大街(内环),鼓楼大街,,39.9474755,116.3879199,,,0,r7842110,,,,,
n1349202053,020016,安定门(内环),安定门,,39.9476094,116.4020695,,,0,r1650486,,,,,
n1349202038,020015,雍和宫(内环),雍和宫,,39.9478727,116.4115476,,,0,r1650485,,,,,
n1349202004,980021,东直门(内环),东直门,,39.9397012,116.4276063,,,0,r1607096,,,,,
n1349201997,020013,东四十条(内环),东四十条,,39.9322864,116.4279205,,,0,r1650483,,,,,
n1349202021,060043,朝阳门(内环),朝阳门,,39.923048,116.4283033,,,0,r1650484,,,,,
n1302996716,020011,建国门(内环),建国门,,39.9071735,116.4294892,,,0,r8047966,,,,,
n1300399132,020010,北京站(内环),北京站,,39.9036434,116.4209407,,,0,r1601341,,,,,
n1300399164,020009,崇文门(内环),崇文门,,39.8997355,116.4107002,,,0,r1601338,,,,,
n1300399139,020008,前门(内环),前门,,39.8987763,116.3908619,,,0,r13536003,,,,,
n1300399200,020007,和平门(内环),和平门,,39.8987573,116.3779931,,,0,r1601339,,,,,
n1298408217,020006,宣武门(内环),宣武门,,39.8984503,116.3680293,,,0,r8047906,,,,,
n1298408197,020005,长椿街(内环),长椿街,,39.8981091,116.3572105,,,0,r1599346,,,,,
n1298408238,020004,复兴门(内环),复兴门,,39.905834,116.3505601,,,0,r8047890,,,,,
n1349005559,020003,阜成门(内环),阜成门,,39.9223114,116.3501328,,,0,r1650227,,,,,
n1349005633,060033,车公庄(内环),车公庄,,39.9310083,116.3497426,,,0,r8047970,,,,,
n12416926201,020013,东四十条(上行),东四十条,,39.9322455,116.4280133,,,0,r18412906,,,,,
r18412906,020013,东四十条,东四十条,,39.932287,116.4280068,,,1,,,,,,
n8283682614,020013,东四十条出口,东四十条出口,,39.9325691,116.4290738,,,2,r18412906,,,,,
n12416822500,030023,工人体育场(上行),工人体育场,,39.9323193,116.4448576,,,0,r18412905,,,,,
r18412905,030023,工人体育场,工人体育场,,39.9323548,116.4442038,,,1,,,,,,
n12433727438,030023,工人体育场C出口,工人体育场C出口,,39.93364,116.44385,,,2,r18412905,,,,,
n12433727439,030023,工人体育场D出口,工人体育场D出口,,39.93259,116.44533,,,2,r18412905,,,,,
n12422262444,100033,团结湖(上行),团结湖,,39.9323442,116.4554633,,,0,r18420552,,,,,
r18420552,100033,团结湖,团结湖,,39.9322013,116.4556066,,,1,,,,,,
n4398519340,100033,团结湖A出口,团结湖A出口,,39.9335092,116.4551116,,,2,r18420552,,,,,
n1765106519,100033,团结湖B出口,团结湖B出口,,39.9332339,116.456003,,,2,r18420552,,,,,
n1765106500,100033,团结湖C出口,团结湖C出口,,39.9321234,116.4564941,,,2,r18420552,,,,,
n4398519339,100033,团结湖D出口,团结湖D出口,,39.9314282,116.4551395,,,2,r18420552,,,,,
n12433719332,100033,团结湖F出口,团结湖F出口,,39.93267,116.45299,,,2,r18420552,,,,,
n12433719331,100033,团结湖F出口,团结湖F出口,,39.93266,116.45429,,,2,r18420552,,,,,
n12433719325,100033,团结湖H出口,团结湖H出口,,39.93204,116.4520184,,,2,r18420552,,,,,
n12433719330,100033,团结湖H出口,团结湖H出口,,39.93209,116.45311,,,2,r18420552,,,,,
n12433842055,140073,朝阳公园(上行),朝阳公园,,39.9323817,116.4734001,,,0,r18443075,,,,,
r18443075,140073,朝阳公园,朝阳公园,,39.9323096,116.4725284,,,1,,,,,,
n4832116910,140073,朝阳公园A出口,朝阳公园A出口,,39.9327466,116.4713217,,,2,r18443075,,,,,
n4832116911,140073,朝阳公园B出口,朝阳公园B出口,,39.9327517,116.473172,,,2,r18443075,,,,,
n4832116912,140073,朝阳公园D1出口,朝阳公园D1出口,,39.9313516,116.4720283,,,2,r18443075,,,,,
n4832116913,140073,朝阳公园D2出口,朝阳公园D2出口,,39.9321418,116.4708712,,,2,r18443075,,,,,
n12433842056,030029,石佛营(上行),石佛营,,39.9341304,116.4934591,,,0,r18443902,,,,,
r18443902,030029,石佛营,石佛营,,39.9341652,116.4934435,,,1,,,,,,
n12435034365,030029,石佛营出口,石佛营出口,,39.9349328,116.4949465,,,2,r18443902,,,,,
n12435034366,030029,石佛营出口,石佛营出口,,39.9347579,116.4943349,,,2,r18443902,,,,,
n12435034367,030029,石佛营出口,石佛营出口,,39.9342499,116.4925781,,,2,r18443902,,,,,
n12435034363,030029,石佛营出口,石佛营出口,,39.9340834,116.4939728,,,2,r18443902,,,,,
n12435034364,030029,石佛营出口,石佛营出口,,39.9336185,116.4922991,,,2,r18443902,,,,,
n12433842058,030031,朝阳站(上行),朝阳站,,39.9430017,116.4999543,,,0,r18444028,,,,,
r18444028,030031,朝阳站,朝阳站,,39.9429982,116.4998836,,,1,,,,,,
n12433842061,030033,姚家园(上行),姚家园,,39.9465407,116.5213056,,,0,r18444025,,,,,
r18444025,030033,姚家园,姚家园,,39.9465956,116.5212923,,,1,,,,,,
n13082034995,030033,姚家园A出口,姚家园A出口,,39.9467032,116.519809,,,2,r18444025,,,,,
n13082034997,030033,姚家园C出口,姚家园C出口,,39.9465892,116.5226131,,,2,r18444025,,,,,
n13082034996,030033,姚家园D出口,姚家园D出口,,39.9462323,116.5197806,,,2,r18444025,,,,,
n12433842062,030035,东坝南(上行),东坝南,,39.9507902,116.5411896,,,0,r18444026,,,,,
r18444026,030035,东坝南,东坝南,,39.9507876,116.5411241,,,1,,,,,,
n12433842064,030037,东坝(上行),东坝,,39.9646459,116.5414361,,,0,r18444027,,,,,
r18444027,030037,东坝,东坝,,39.964645,116.541359,,,1,,,,,,
n8002238346,030039,东坝北(上行),东坝北,,39.9744445,116.5519843,,,0,r18412904,,,,,
r18412904,030039,东坝北,东坝北,,39.9746043,116.5519702,,,1,,,,,,
n12433842066,030039,东坝北(下行),东坝北,,39.9747277,116.5519266,,,0,r18412904,,,,,
n12433842065,030037,东坝(下行),东坝,,39.9646475,116.5412796,,,0,r18444027,,,,,
n12433842063,030035,东坝南(下行),东坝南,,39.9507853,116.5410681,,,0,r18444026,,,,,
n12433842060,030033,姚家园(下行),姚家园,,39.9466663,116.5212755,,,0,r18444025,,,,,
n12433842059,030031,朝阳站(下行),朝阳站,,39.9429968,116.4998339,,,0,r18444028,,,,,
n12433842057,030029,石佛营(下行),石佛营,,39.9342163,116.4934126,,,0,r18443902,,,,,
n12433842054,140073,朝阳公园(下行),朝阳公园,,39.9324802,116.4733995,,,0,r18443075,,,,,
n12422262445,100033,团结湖(下行),团结湖,,39.9324336,116.4554624,,,0,r18420552,,,,,
n12422262446,030023,工人体育场(下行),工人体育场,,39.9324112,116.4448522,,,0,r18412905,,,,,
n12422262443,020013,东四十条(下行),东四十条,,39.9323084,116.4280154,,,0,r18412906,,,,,
n2099427626,930041,天宫院(上行),天宫院,,39.6689922,116.3139399,,,0,r2684708,,,,,
r2684708,930041,天宫院,天宫院,,39.6689886,116.3139055,,,1,,,,,,
n1831955375,930041,天宫院A出口,天宫院A出口,,39.6695441,116.3135171,,,2,r2684708,,,,,
n1831955380,930041,天宫院B出口,天宫院B出口,,39.6696528,116.3141624,,,2,r2684708,,,,,
n1831955378,930041,天宫院C出口,天宫院C出口,,39.6683097,116.3141337,,,2,r2684708,,,,,
n1831955382,930041,天宫院D出口,天宫院D出口,,39.6686922,116.3131245,,,2,r2684708,,,,,
n2099427622,930039,生物医药基地(上行),生物医药基地,,39.6851244,116.3157193,,,0,r2684704,,,,,
r2684704,930039,生物医药基地,生物医药基地,,39.6851077,116.3156802,,,1,,,,,,
n2099427627,930037,义和庄(上行),义和庄,,39.7111088,116.3130547,,,0,r2684709,,,,,
r2684709,930037,义和庄,义和庄,,39.7111046,116.3130186,,,1,,,,,,
n1788317646,930037,义和庄出口,义和庄出口,,39.7117636,116.3123114,,,2,r2684709,,,,,
n1788317647,930037,义和庄出口,义和庄出口,,39.7119146,116.3132357,,,2,r2684709,,,,,
n1788317645,930037,义和庄出口,义和庄出口,,39.7105847,116.3136092,,,2,r2684709,,,,,
n1788317644,930037,义和庄出口,义和庄出口,,39.7103932,116.312819,,,2,r2684709,,,,,
n2099427623,930035,黄村火车站(上行),黄村火车站,,39.7215003,116.3266885,,,0,r2684705,,,,,
r2684705,930035,黄村火车站,黄村火车站,,39.7215049,116.3266541,,,1,,,,,,
n1788324402,930035,黄村火车站出口,黄村火车站出口,,39.7223753,116.326892,,,2,r2684705,,,,,
n1788324401,930035,黄村火车站出口,黄村火车站出口,,39.7221961,116.3262207,,,2,r2684705,,,,,
n1081998188,930035,黄村火车站D出口,黄村火车站D出口,,39.7208398,116.3262312,,,2,r2684705,,,,,
n1788324400,930035,黄村火车站出口,黄村火车站出口,,39.7208184,116.3271702,,,2,r2684705,,,,,
n2099427624,930033,黄村西大街(上行),黄村西大街,,39.7304217,116.3265479,,,0,r2684706,,,,,
r2684706,930033,黄村西大街,黄村西大街,,39.730422,116.3265186,,,1,,,,,,
n1788337404,930033,黄村西大街出口,黄村西大街出口,,39.730676,116.3257527,,,2,r2684706,,,,,
n1788337407,930033,黄村西大街出口,黄村西大街出口,,39.730975,116.3269294,,,2,r2684706,,,,,
n1788337402,930033,黄村西大街出口,黄村西大街出口,,39.7302518,116.3272971,,,2,r2684706,,,,,
n1788337399,930033,黄村西大街出口,黄村西大街出口,,39.729767,116.326152,,,2,r2684706,,,,,
n2099427625,930031,清源路(上行),清源路,,39.741756,116.3263684,,,0,r2684707,,,,,
r2684707,930031,清源路,清源路,,39.7417561,116.3263162,,,1,,,,,,
n1788406174,930031,清源路出口,清源路出口,,39.741953,116.3259479,,,2,r2684707,,,,,
n1788406181,930031,清源路出口,清源路出口,,39.7420443,116.3265838,,,2,r2684707,,,,,
n1788406118,930031,清源路出口,清源路出口,,39.7406777,116.3267087,,,2,r2684707,,,,,
n1675448966,930029,枣园(上行),枣园,,39.7518048,116.3261527,,,0,r2083789,,,,,
r2083789,930029,枣园,枣园,,39.7518055,116.3260337,,,1,,,,,,
n5441990946,930029,枣园B出口,枣园B出口,,39.752735,116.326568,,,2,r2083789,,,,,
n5441990947,930029,枣园C出口,枣园C出口,,39.7516541,116.3265746,,,2,r2083789,,,,,
n5441990948,930029,枣园D出口,枣园D出口,,39.7518091,116.3252071,,,2,r2083789,,,,,
n5441990949,930029,枣园A出口,枣园A出口,,39.7522519,116.3251363,,,2,r2083789,,,,,
n1675448965,930027,高米店南(上行),高米店南,,39.7622938,116.3257839,,,0,r2083791,,,,,
r2083791,930027,高米店南,高米店南,,39.7622885,116.325694,,,1,,,,,,
n2494634843,930027,高米店南出口,高米店南出口,,39.7627149,116.3248756,,,2,r2083791,,,,,
n5444199589,930027,高米店南出口,高米店南出口,,39.7611617,116.3247644,,,2,r2083791,,,,,
n5474464819,930027,高米店南出口,高米店南出口,,39.7624397,116.3265426,,,2,r2083791,,,,,
n10842743297,930027,高米店南出口,高米店南出口,,39.7628614,116.3260422,,,2,r2083791,,,,,
n1675448964,930025,高米店北(上行),高米店北,,39.7730349,116.3245724,,,0,r2083790,,,,,
r2083790,930025,高米店北,高米店北,,39.7730301,116.3244805,,,1,,,,,,
n1675441058,930023,西红门(上行),西红门,,39.7883955,116.3227016,,,0,r2083784,,,,,
r2083784,930023,西红门,西红门,,39.7883939,116.322677,,,1,,,,,,
n1675420758,190039,新宫(上行),新宫,,39.811171,116.3595405,,,0,r2083778,,,,,
r2083778,190039,新宫,新宫,,39.8110444,116.359749,,,1,,,,,,
n1081998172,190039,新宫A出口,新宫A出口,,39.8114209,116.3589402,,,2,r2083778,,,,,
n1081998168,190039,新宫B出口,新宫B出口,,39.8115092,116.359845,,,2,r2083778,,,,,
n9144723560,190039,新宫C出口,新宫C出口,,39.8103253,116.3604083,,,2,r2083778,,,,,
n1674674667,040067,公益西桥(上行),公益西桥,,39.8352645,116.3646955,,,0,r2082882,,,,,
r2082882,040067,公益西桥,公益西桥,,39.8352632,116.3646715,,,1,,,,,,
n1674674639,040067,公益西桥出口,公益西桥出口,,39.8340246,116.3649673,,,2,r2082882,,,,,
n1674674644,040067,公益西桥出口,公益西桥出口,,39.8346146,116.3649715,,,2,r2082882,,,,,
n1674674645,040067,公益西桥出口,公益西桥出口,,39.8346582,116.3643213,,,2,r2082882,,,,,
n1674674656,040067,公益西桥出口,公益西桥出口,,39.8362887,116.3643697,,,2,r2082882,,,,,
n1674674657,040067,公益西桥出口,公益西桥出口,,39.8364308,116.3650187,,,2,r2082882,,,,,
n1674675754,040067,公益西桥出口,公益西桥出口,,39.8336279,116.3652236,,,2,r2082882,,,,,
n1674675752,040067,公益西桥出口,公益西桥出口,,39.8332178,116.3642778,,,2,r2082882,,,,,
n1674674670,900039,角门西(上行),角门西,,39.8444012,116.3650839,,,0,r2082883,,,,,
r2082883,900039,角门西,角门西,,39.8444824,116.3647807,,,1,,,,,,
n3337810729,900039,角门西C出口,角门西C出口,,39.8435949,116.365252,,,2,r2082883,,,,,
n1674661898,040063,马家堡(上行),马家堡,,39.851633,116.3653231,,,0,r2082884,,,,,
r2082884,040063,马家堡,马家堡,,39.8516352,116.365207,,,1,,,,,,
n1673553148,140045,北京南站(上行),北京南站,,39.8635282,116.3728993,,,0,r2081493,,,,,
r2081493,140045,北京南站,北京南站,,39.8635548,116.3727527,,,1,,,,,,
n1673394714,040059,陶然亭(上行),陶然亭,,39.8774486,116.3683076,,,0,r2081312,,,,,
r2081312,040059,陶然亭,陶然亭,,39.8774369,116.3682029,,,1,,,,,,
n7164710656,040059,陶然亭A出口,陶然亭A出口,,39.8773672,116.3675982,,,2,r2081312,,,,,
n7164710655,040059,陶然亭C出口,陶然亭C出口,,39.8766484,116.3686295,,,2,r2081312,,,,,
n7164710657,040059,陶然亭D出口,陶然亭D出口,,39.8769186,116.3675465,,,2,r2081312,,,,,
n1673394703,070029,菜市口(上行),菜市口,,39.8878994,116.3683399,,,0,r2081311,,,,,
r2081311,070029,菜市口,菜市口,,39.887991,116.3682164,,,1,,,,,,
n8830757618,070029,菜市口A出口,菜市口A出口,,39.8887405,116.367753,,,2,r2081311,,,,,
n8830757637,070029,菜市口D出口,菜市口D出口,,39.8874385,116.3674799,,,2,r2081311,,,,,
n8830757646,070029,菜市口C出口,菜市口C出口,,39.8871569,116.3688371,,,2,r2081311,,,,,
n1673386299,020006,宣武门(上行),宣武门,,39.8983943,116.3681338,,,0,r1599347,,,,,
r1599347,020006,宣武门,宣武门,,39.8983866,116.3680141,,,1,,,,,,
n9119424772,020006,宣武门G出口,宣武门G出口,,39.8969728,116.3686125,,,2,r1599347,,,,,
n1673386344,040053,西单(上行),西单,,39.9057464,116.3677357,,,0,r8048029,,,,,
r8048029,040053,西单,西单,,39.9057386,116.3682035,,,1,,,,,,
n5077273852,040053,西单出口,西单出口,,39.9065932,116.367471,,,2,r8048029,,,,,
n1660324132,040051,灵境胡同(上行),灵境胡同,,39.9148897,116.3673627,,,0,r2068920,,,,,
r2068920,040051,灵境胡同,灵境胡同,,39.9147796,116.3672738,,,1,,,,,,
n533643227,040051,灵境胡同A出口,灵境胡同A出口,,39.9162195,116.3670031,,,2,r2068920,,,,,
n10763621391,040051,灵境胡同B出口,灵境胡同B出口,,39.9148189,116.3677494,,,2,r2068920,,,,,
n533643087,040051,灵境胡同C出口,灵境胡同C出口,,39.914212,116.3677411,,,2,r2068920,,,,,
n10763621390,040051,灵境胡同出口,灵境胡同出口,,39.9143817,116.3678245,,,2,r2068920,,,,,
n533643092,040051,灵境胡同D出口,灵境胡同D出口,,39.9141523,116.3670674,,,2,r2068920,,,,,
n1660324139,040049,西四(上行),西四,,39.9225619,116.366918,,,0,r2068921,,,,,
r2068921,040049,西四,西四,,39.9225455,116.3668145,,,1,,,,,,
n533640060,040049,西四A出口,西四A出口,,39.9237897,116.3669087,,,2,r2068921,,,,,
n533640038,040049,西四B出口,西四B出口,,39.9236909,116.367604,,,2,r2068921,,,,,
n533640293,040049,西四D出口,西四D出口,,39.9218283,116.3665111,,,2,r2068921,,,,,
n10735103649,040049,西四出口,西四出口,,39.9221032,116.3665035,,,2,r2068921,,,,,
n1660324135,060035,平安里(上行),平安里,,39.9322572,116.3665966,,,0,r8047968,,,,,
r8047968,060035,平安里,平安里,,39.9323165,116.3664868,,,1,,,,,,
n1742845280,060035,平安里A出口,平安里A出口,,39.9332331,116.3662761,,,2,r8047968,,,,,
n1742845277,060035,平安里B出口,平安里B出口,,39.9331509,116.3669996,,,2,r8047968,,,,,
n1742845270,060035,平安里C出口,平安里C出口,,39.931872,116.3670593,,,2,r8047968,,,,,
n1742845268,060035,平安里D出口,平安里D出口,,39.9318178,116.3663306,,,2,r8047968,,,,,
n10727046918,060035,平安里F出口,平安里F出口,,39.9316564,116.3658088,,,2,r8047968,,,,,
n4917790491,060035,平安里G1出口,平安里G1出口,,39.9309717,116.365077,,,2,r8047968,,,,,
n1660324216,040045,新街口(上行),新街口,,39.9394726,116.3613576,,,0,r2068919,,,,,
r2068919,040045,新街口,新街口,,39.9394291,116.3612739,,,1,,,,,,
n10605269480,040045,新街口A出口,新街口A出口,,39.9396388,116.3605642,,,2,r2068919,,,,,
n2504963303,040045,新街口B出口,新街口B出口,,39.9395358,116.3626613,,,2,r2068919,,,,,
n10605269482,040045,新街口C出口,新街口C出口,,39.9385075,116.3620734,,,2,r2068919,,,,,
n10605269483,040045,新街口D出口,新街口D出口,,39.9391062,116.3610849,,,2,r2068919,,,,,
n1364282601,020001,西直门(上行),西直门,,39.9391731,116.3493233,,,0,r8047958,,,,,
r8047958,020001,西直门,西直门,,39.9392172,116.3492348,,,1,,,,,,
n1364282596,040041,动物园(上行),动物园,,39.9369733,116.3327289,,,0,r1667221,,,,,
r1667221,040041,动物园,动物园,,39.9369392,116.332733,,,1,,,,,,
n1364282700,040041,动物园出口,动物园出口,,39.9364954,116.3315745,,,2,r1667221,,,,,
n910168396,040041,动物园出口,动物园出口,,39.9373094,116.3320146,,,2,r1667221,,,,,
n1364282702,040041,动物园出口,动物园出口,,39.9373773,116.3340989,,,2,r1667221,,,,,
n1364282701,040041,动物园出口,动物园出口,,39.9366015,116.3340034,,,2,r1667221,,,,,
n1364282616,040041,动物园出口,动物园出口,,39.9373663,116.3337975,,,2,r1667221,,,,,
n1364282599,160049,国家图书馆(上行),国家图书馆,,39.9417831,116.3192244,,,0,r1667222,,,,,
r1667222,160049,国家图书馆,国家图书馆,,39.9412214,116.3187284,,,1,,,,,,
n1364282654,160049,国家图书馆A出口,国家图书馆A出口,,39.942483,116.3184605,,,2,r1667222,,,,,
n11176862584,160049,国家图书馆B出口,国家图书馆B出口,,39.9424918,116.3193116,,,2,r1667222,,,,,
n1364282649,160049,国家图书馆C出口,国家图书馆C出口,,39.9412736,116.3194659,,,2,r1667222,,,,,
n1364282641,160049,国家图书馆D出口,国家图书馆D出口,,39.941089,116.3186802,,,2,r1667222,,,,,
n1364282703,040037,魏公村(上行),魏公村,,39.9562855,116.3172894,,,0,r1667223,,,,,
r1667223,040037,魏公村,魏公村,,39.9563044,116.3171815,,,1,,,,,,
n1364282678,040037,魏公村A出口,魏公村A出口,,39.9568928,116.3167203,,,2,r1667223,,,,,
n1364282682,040037,魏公村B出口,魏公村B出口,,39.9570378,116.3174162,,,2,r1667223,,,,,
n1364282677,040037,魏公村D出口,魏公村D出口,,39.9558292,116.3167138,,,2,r1667223,,,,,
n8587100688,040037,魏公村A出口,魏公村A出口,,39.9565946,116.3167807,,,2,r1667223,,,,,
n1364282600,040035,人民大学(上行),人民大学,,39.965727,116.3158285,,,0,r1667220,,,,,
r1667220,040035,人民大学,人民大学,,39.965744,116.3157286,,,1,,,,,,
n1364282697,040035,人民大学A1出口,人民大学A1出口,,39.9666746,116.3144006,,,2,r1667220,,,,,
n1364282698,040035,人民大学A2出口,人民大学A2出口,,39.9667262,116.3152317,,,2,r1667220,,,,,
n1767257015,040035,人民大学B出口,人民大学B出口,,39.9661948,116.3158678,,,2,r1667220,,,,,
n586467392,040035,人民大学C出口,人民大学C出口,,39.9652633,116.3164109,,,2,r1667220,,,,,
n1364282690,040035,人民大学D出口,人民大学D出口,,39.9645763,116.3152619,,,2,r1667220,,,,,
n6621483714,100005,海淀黄庄(上行),海淀黄庄,,39.9747188,116.3116313,,,0,r9803548,,,,,
r9803548,100005,海淀黄庄,海淀黄庄,,39.9747132,116.3115201,,,1,,,,,,
n1350216512,100005,海淀黄庄A2出口,海淀黄庄A2出口,,39.9769667,116.310283,,,2,r9803548,,,,,
n1350216465,100005,海淀黄庄A1出口,海淀黄庄A1出口,,39.9749738,116.3108398,,,2,r9803548,,,,,
n1350216485,100005,海淀黄庄B出口,海淀黄庄B出口,,39.9750642,116.3117316,,,2,r9803548,,,,,
n1350216363,100005,海淀黄庄C出口,海淀黄庄C出口,,39.9744719,116.3125219,,,2,r9803548,,,,,
n1350216356,100005,海淀黄庄D出口,海淀黄庄D出口,,39.9744836,116.3108914,,,2,r9803548,,,,,
n1362276541,040031,中关村(上行),中关村,,39.9826335,116.3104743,,,0,r1664492,,,,,
r1664492,040031,中关村,中关村,,39.9826574,116.3103787,,,1,,,,,,
n1420940400,040031,中关村出口,中关村出口,,39.9820359,116.3099226,,,2,r1664492,,,,,
n1559643067,040031,中关村出口,中关村出口,,39.9817326,116.3109701,,,2,r1664492,,,,,
n1362276450,040031,中关村A1出口,中关村A1出口,,39.9836414,116.3097217,,,2,r1664492,,,,,
n1362276452,040031,中关村出口,中关村出口,,39.9836353,116.3108364,,,2,r1664492,,,,,
n10796572021,040031,中关村E出口,中关村E出口,,39.983228,116.3096435,,,2,r1664492,,,,,
n1362276343,040029,北京大学东门(上行),北京大学东门,,39.9907513,116.3098167,,,0,r1664493,,,,,
r1664493,040029,北京大学东门,北京大学东门,,39.9907813,116.3097264,,,1,,,,,,
n1362276495,040029,北京大学东门B出口,北京大学东门B出口,,39.9910798,116.3101708,,,2,r1664493,,,,,
n1362276494,040029,北京大学东门C出口,北京大学东门C出口,,39.990626,116.3103723,,,2,r1664493,,,,,
n1362276488,040029,北京大学东门D出口,北京大学东门D出口,,39.9897469,116.3094669,,,2,r1664493,,,,,
n1362276505,040029,北京大学东门A出口,北京大学东门A出口,,39.9913161,116.3093009,,,2,r1664493,,,,,
n1362259024,040027,圆明园(上行),圆明园,,39.9983344,116.303657,,,0,r1664487,,,,,
r1664487,040027,圆明园,圆明园,,39.9982949,116.3036739,,,1,,,,,,
n1362259050,040027,圆明园出口,圆明园出口,,39.998177,116.3039607,,,2,r1664487,,,,,
n1362259055,040027,圆明园出口,圆明园出口,,39.998663,116.3046052,,,2,r1664487,,,,,
n1362259051,040027,圆明园出口,圆明园出口,,39.9982571,116.3027499,,,2,r1664487,,,,,
n1362259031,160039,西苑(上行),西苑,,39.9967452,116.2855641,,,0,r9736309,,,,,
r9736309,160039,西苑,西苑,,39.9966984,116.2855319,,,1,,,,,,
n1423966920,160039,西苑出口,西苑出口,,39.9968522,116.284284,,,2,r9736309,,,,,
n1423966915,160039,西苑出口,西苑出口,,39.9965527,116.2851117,,,2,r9736309,,,,,
n1362259044,160039,西苑出口,西苑出口,,39.9975252,116.2852239,,,2,r9736309,,,,,
n1421547756,160039,西苑出口,西苑出口,,39.9979402,116.2844948,,,2,r9736309,,,,,
n1362259110,,北宫门站(上行),北宫门站,,40.0012438,116.271385,,,0,r1664486,,,,,
r1664486,,北宫门站,北宫门站,,40.0011928,116.2713671,,,1,,,,,,
n1423042876,,北宫门站A1出口,北宫门站A1出口,,40.0015989,116.2706439,,,2,r1664486,,,,,
n1423042662,,北宫门站C出口,北宫门站C出口,,40.0008255,116.2722267,,,2,r1664486,,,,,
n1362259058,,北宫门站D出口,北宫门站D出口,,40.0009484,116.2713639,,,2,r1664486,,,,,
n528916114,040021,安河桥北(上行),安河桥北,,40.0110268,116.2640305,,,0,r1664488,,,,,
r1664488,040021,安河桥北,安河桥北,,40.0110618,116.2639202,,,1,,,,,,
n10781912996,040021,安河桥北B出口,安河桥北B出口,,40.0115205,116.2640794,,,2,r1664488,,,,,
n10781912995,040021,安河桥北C出口,安河桥北C出口,,40.0105612,116.264019,,,2,r1664488,,,,,
n1362259113,040021,安河桥北(下行),安河桥北,,40.0110255,116.2639813,,,0,r1664488,,,,,
n528916061,,北宫门站(下行),北宫门站,,40.001161,116.2713357,,,0,r1664486,,,,,
n528916026,160039,西苑(下行),西苑,,39.9966504,116.2855053,,,0,r9736309,,,,,
n528913962,040027,圆明园(下行),圆明园,,39.9982429,116.3037029,,,0,r1664487,,,,,
n528922035,040029,北京大学东门(下行),北京大学东门,,39.9908074,116.3095941,,,0,r1664493,,,,,
n528922127,040031,中关村(下行),中关村,,39.9826925,116.3102538,,,0,r1664492,,,,,
n6621483712,100005,海淀黄庄(下行),海淀黄庄,,39.9747124,116.3114265,,,0,r9803548,,,,,
n528925729,040035,人民大学(下行),人民大学,,39.965758,116.3156202,,,0,r1667220,,,,,
n528926456,040037,魏公村(下行),魏公村,,39.9563342,116.3170676,,,0,r1667223,,,,,
n528927340,160049,国家图书馆(下行),国家图书馆,,39.9418236,116.318865,,,0,r1667222,,,,,
n528928174,040041,动物园(下行),动物园,,39.9368863,116.3327167,,,0,r1667221,,,,,
n1085309402,020001,西直门(下行),西直门,,39.9390927,116.3493268,,,0,r8047958,,,,,
n528928528,040045,新街口(下行),新街口,,39.9393811,116.3613437,,,0,r2068919,,,,,
n528928764,060035,平安里(下行),平安里,,39.9323177,116.3663949,,,0,r8047968,,,,,
n528928995,040049,西四(下行),西四,,39.9225541,116.3667178,,,0,r2068921,,,,,
n528929127,040051,灵境胡同(下行),灵境胡同,,39.9149476,116.3671636,,,0,r2068920,,,,,
n339085844,040053,西单(下行),西单,,39.9057485,116.3676628,,,0,r8048029,,,,,
n339089807,020006,宣武门(下行),宣武门,,39.8983902,116.3679294,,,0,r1599347,,,,,
n528929965,070029,菜市口(下行),菜市口,,39.8879008,116.3681094,,,0,r2081311,,,,,
n528930289,040059,陶然亭(下行),陶然亭,,39.8774343,116.368085,,,0,r2081312,,,,,
n528931158,140045,北京南站(下行),北京南站,,39.8634948,116.3726414,,,0,r2081493,,,,,
n528931992,040063,马家堡(下行),马家堡,,39.8516387,116.365093,,,0,r2082884,,,,,
n528934416,900039,角门西(下行),角门西,,39.8444042,116.364851,,,0,r2082883,,,,,
n528934756,040067,公益西桥(下行),公益西桥,,39.8352652,116.3646416,,,0,r2082882,,,,,
n1675420751,190039,新宫(下行),新宫,,39.811161,116.3592596,,,0,r2083778,,,,,
n1080681438,930023,西红门(下行),西红门,,39.788393,116.3226513,,,0,r2083784,,,,,
n1080681454,930025,高米店北(下行),高米店北,,39.7730294,116.3243819,,,0,r2083790,,,,,
n1080681283,930027,高米店南(下行),高米店南,,39.7622833,116.325577,,,0,r2083791,,,,,
n1080681389,930029,枣园(下行),枣园,,39.7518044,116.3259177,,,0,r2083789,,,,,
n1080681293,930031,清源路(下行),清源路,,39.7417545,116.3262542,,,0,r2684707,,,,,
n1080681255,930033,黄村西大街(下行),黄村西大街,,39.7304213,116.3264834,,,0,r2684706,,,,,
n1080681295,930035,黄村火车站(下行),黄村火车站,,39.7215041,116.3266134,,,0,r2684705,,,,,
n1093985711,930037,义和庄(下行),义和庄,,39.7110984,116.3129771,,,0,r2684709,,,,,
n1080681248,930039,生物医药基地(下行),生物医药基地,,39.6851232,116.3156268,,,0,r2684704,,,,,
n1093985674,930041,天宫院(下行),天宫院,,39.6689895,116.3138671,,,0,r2684708,,,,,
n340260427,900031,宋家庄(上行),宋家庄,,39.844395,116.4220122,,,0,r7950998,,,,,
r7950998,900031,宋家庄,宋家庄,,39.8443821,116.4219287,,,1,,,,,,
n6781735198,900031,宋家庄A出口,宋家庄A出口,,39.8452021,116.4218646,,,2,r7950998,,,,,
n6781735208,900031,宋家庄B出口,宋家庄B出口,,39.8452472,116.4224708,,,2,r7950998,,,,,
n6781735185,900031,宋家庄F出口,宋家庄F出口,,39.8422693,116.4224547,,,2,r7950998,,,,,
n6781735194,900031,宋家庄G出口,宋家庄G出口,,39.8422849,116.4218231,,,2,r7950998,,,,,
n10618731553,900031,宋家庄H出口,宋家庄H出口,,39.8441781,116.4213701,,,2,r7950998,,,,,
n340260308,050063,刘家窑(上行),刘家窑,,39.8559513,116.4157106,,,0,r1660375,,,,,
r1660375,050063,刘家窑,刘家窑,,39.8560744,116.4156074,,,1,,,,,,
n2524037303,050063,刘家窑A出口,刘家窑A出口,,39.8566082,116.4145941,,,2,r1660375,,,,,
n2524037306,050063,刘家窑B出口,刘家窑B出口,,39.8567284,116.4168612,,,2,r1660375,,,,,
n2524037293,050063,刘家窑C出口,刘家窑C出口,,39.8555266,116.4166992,,,2,r1660375,,,,,
n2524037290,050063,刘家窑D出口,刘家窑D出口,,39.8554845,116.4148089,,,2,r1660375,,,,,
n340260160,140053,蒲黄榆(上行),蒲黄榆,,39.8641249,116.4155268,,,0,r1660379,,,,,
r1660379,140053,蒲黄榆,蒲黄榆,,39.8643287,116.4154612,,,1,,,,,,
n1359089967,140053,蒲黄榆B出口,蒲黄榆B出口,,39.8645442,116.4162428,,,2,r1660379,,,,,
n2524037395,140053,蒲黄榆C出口,蒲黄榆C出口,,39.8635046,116.4159116,,,2,r1660379,,,,,
n2533476855,140053,蒲黄榆A出口,蒲黄榆A出口,,39.8647909,116.4150867,,,2,r1660379,,,,,
n11175763664,140053,蒲黄榆E出口,蒲黄榆E出口,,39.865002,116.4157485,,,2,r1660379,,,,,
n340260096,050059,天坛东门(上行),天坛东门,,39.8822596,116.4146462,,,0,r1660376,,,,,
r1660376,050059,天坛东门,天坛东门,,39.8822567,116.4145694,,,1,,,,,,
n1359089982,050059,天坛东门A2出口,天坛东门A2出口,,39.8828851,116.4141573,,,2,r1660376,,,,,
n9116718005,050059,天坛东门B出口,天坛东门B出口,,39.8822988,116.4151836,,,2,r1660376,,,,,
n9116718003,050059,天坛东门C出口,天坛东门C出口,,39.8801299,116.4151026,,,2,r1660376,,,,,
n340260038,070037,磁器口(上行),磁器口,,39.8917004,116.4127135,,,0,r1660378,,,,,
r1660378,070037,磁器口,磁器口,,39.8917025,116.4126199,,,1,,,,,,
n1359090002,070037,磁器口D出口,磁器口D出口,,39.8912512,116.4118114,,,2,r1660378,,,,,
n1359090003,070037,磁器口A出口,磁器口A出口,,39.8920481,116.4118221,,,2,r1660378,,,,,
n340260004,020009,崇文门(上行),崇文门,,39.8994918,116.41244,,,0,r8047911,,,,,
r8047911,020009,崇文门,崇文门,,39.8997371,116.4119567,,,1,,,,,,
n7591781042,020009,崇文门E出口,崇文门E出口,,39.9003192,116.4117737,,,2,r8047911,,,,,
n340258817,050053,东单(上行),东单,,39.9068739,116.4124215,,,0,r1603640,,,,,
r1603640,050053,东单,东单,,39.9068579,116.412626,,,1,,,,,,
n1654257560,050053,东单E出口,东单E出口,,39.9070544,116.4109871,,,2,r1603640,,,,,
n7592090661,050053,东单F出口,东单F出口,,39.9075452,116.4127752,,,2,r1603640,,,,,
n339094381,050051,灯市口(上行),灯市口,,39.9154127,116.4119212,,,0,r1659650,,,,,
r1659650,050051,灯市口,灯市口,,39.9154103,116.4118355,,,1,,,,,,
n7591778833,050051,灯市口A出口,灯市口A出口,,39.9161435,116.4112688,,,2,r1659650,,,,,
n2383255362,050051,灯市口C出口,灯市口C出口,,39.915364,116.4122892,,,2,r1659650,,,,,
n340257439,060041,东四(上行),东四,,39.9230128,116.4117599,,,0,r1659645,,,,,
r1659645,060041,东四,东四,,39.92329632,116.41167722,,,1,,,,,,
n1357810136,060041,东四C出口,东四C出口,,39.9225912,116.4118873,,,2,r1659645,,,,,
n340258011,050047,张自忠路(上行),张自忠路,,39.9322924,116.4113888,,,0,r1659649,,,,,
r1659649,050047,张自忠路,张自忠路,,39.9322844,116.4112952,,,1,,,,,,
n10180673523,050047,张自忠路A出口,张自忠路A出口,,39.9324653,116.4103019,,,2,r1659649,,,,,
n7580045640,050047,张自忠路B出口,张自忠路B出口,,39.9326358,116.4115337,,,2,r1659649,,,,,
n1357810160,050047,张自忠路C出口,张自忠路C出口,,39.9318153,116.4115322,,,2,r1659649,,,,,
n1357810156,050047,张自忠路出口,张自忠路出口,,39.9316757,116.4106251,,,2,r1659649,,,,,
n340258199,980019,北新桥(上行),北新桥,,39.9394093,116.4109847,,,0,r1659646,,,,,
r1659646,980019,北新桥,北新桥,,39.9393851,116.4108894,,,1,,,,,,
n3523165841,980019,北新桥D出口,北新桥D出口,,39.9392673,116.4103927,,,2,r1659646,,,,,
n1357810172,980019,北新桥A出口,北新桥A出口,,39.9399846,116.4103851,,,2,r1659646,,,,,
n294123645,980019,北新桥B出口,北新桥B出口,,39.9400943,116.4111147,,,2,r1659646,,,,,
n3832049257,980019,北新桥C出口,北新桥C出口,,39.9388737,116.4113878,,,2,r1659646,,,,,
n339094371,020015,雍和宫(上行),雍和宫,,39.9469736,116.4102421,,,0,r7842107,,,,,
r7842107,020015,雍和宫,雍和宫,,39.9469713,116.4101645,,,1,,,,,,
n2000101264,020015,雍和宫D出口,雍和宫D出口,,39.9474114,116.4091265,,,2,r7842107,,,,,
n3832049259,020015,雍和宫F出口,雍和宫F出口,,39.9461007,116.4104872,,,2,r7842107,,,,,
n339095053,050041,和平里北街(上行),和平里北街,,39.9573957,116.4123242,,,0,r1659648,,,,,
r1659648,050041,和平里北街,和平里北街,,39.9573887,116.4122352,,,1,,,,,,
n11789311288,050041,和平里北街A1出口,和平里北街A1出口,,39.9576168,116.411469,,,2,r1659648,,,,,
n11789311293,050041,和平里北街A2出口,和平里北街A2出口,,39.9580538,116.4114497,,,2,r1659648,,,,,
n1357810222,050041,和平里北街B出口,和平里北街B出口,,39.9576378,116.4129099,,,2,r1659648,,,,,
n340261588,120043,和平西桥(上行),和平西桥,,39.9666812,116.4118857,,,0,r1659647,,,,,
r1659647,120043,和平西桥,和平西桥,,39.9672289,116.4117932,,,1,,,,,,
n294115577,120043,和平西桥A出口,和平西桥A出口,,39.9673497,116.4110164,,,2,r1659647,,,,,
n5755942873,120043,和平西桥B出口,和平西桥B出口,,39.9673932,116.4123462,,,2,r1659647,,,,,
n6475573502,120043,和平西桥C出口,和平西桥C出口,,39.9659523,116.4121249,,,2,r1659647,,,,,
n6475573501,120043,和平西桥D出口,和平西桥D出口,,39.9660404,116.4114213,,,2,r1659647,,,,,
n12409457378,120043,和平西桥E出口,和平西桥E出口,,39.9674288,116.4112583,,,2,r1659647,,,,,
n12409457385,120043,和平西桥F出口,和平西桥F出口,,39.9687342,116.4113775,,,2,r1659647,,,,,
n12409457384,120043,和平西桥G出口,和平西桥G出口,,39.968251,116.4120348,,,2,r1659647,,,,,
n12409457383,120043,和平西桥G出口,和平西桥G出口,,39.96819,116.41217,,,2,r1659647,,,,,
n340261667,100021,惠新西街南口(上行),惠新西街南口,,39.975959,116.4114257,,,0,r8060970,,,,,
r8060970,100021,惠新西街南口,惠新西街南口,,39.9759588,116.4113554,,,1,,,,,,
n4289827668,100021,惠新西街南口出口,惠新西街南口出口,,39.9765253,116.41178,,,2,r8060970,,,,,
n2575677046,100021,惠新西街南口出口,惠新西街南口出口,,39.9753815,116.4105403,,,2,r8060970,,,,,
n1359135056,100021,惠新西街南口出口,惠新西街南口出口,,39.9754126,116.4120463,,,2,r8060970,,,,,
n5719179211,100021,惠新西街南口出口,惠新西街南口出口,,39.9759538,116.4106259,,,2,r8060970,,,,,
n340261743,050035,惠新西街北口(上行),惠新西街北口,,39.9861785,116.4109272,,,0,r1651802,,,,,
r1651802,050035,惠新西街北口,惠新西街北口,,39.9861781,116.4109068,,,1,,,,,,
n11034313798,050035,惠新西街北口A出口,惠新西街北口A出口,,39.9869287,116.4097477,,,2,r1651802,,,,,
n10207414551,050035,惠新西街北口B出口,惠新西街北口B出口,,39.9868321,116.411621,,,2,r1651802,,,,,
n10207414550,050035,惠新西街北口C出口,惠新西街北口C出口,,39.9858056,116.4111945,,,2,r1651802,,,,,
n1094072326,150035,大屯路东(上行),大屯路东,,40.002543,116.4110577,,,0,r1659506,,,,,
r1659506,150035,大屯路东,大屯路东,,40.0021697,116.4110688,,,1,,,,,,
n8589947907,150035,大屯路东A1出口,大屯路东A1出口,,40.0022211,116.410802,,,2,r1659506,,,,,
n9829539407,150035,大屯路东G出口,大屯路东G出口,,40.001342,116.4126064,,,2,r1659506,,,,,
n9829539416,150035,大屯路东H2出口,大屯路东H2出口,,40.0012007,116.4103475,,,2,r1659506,,,,,
n8589947908,150035,大屯路东出口,大屯路东出口,,40.0012642,116.4097106,,,2,r1659506,,,,,
n7896842487,050031,北苑路北(上行),北苑路北,,40.0290187,116.4119289,,,0,r1659505,,,,,
r1659505,050031,北苑路北,北苑路北,,40.0290192,116.4119016,,,1,,,,,,
n294123681,050029,立水桥南(上行),立水桥南,,40.0404977,116.4083285,,,0,r1659510,,,,,
r1659510,050029,立水桥南,立水桥南,,40.0405075,116.4082437,,,1,,,,,,
n4289811358,050029,立水桥南C出口,立水桥南C出口,,40.0406686,116.4085535,,,2,r1659510,,,,,
n4289811357,050029,立水桥南A出口,立水桥南A出口,,40.0407039,116.4078236,,,2,r1659510,,,,,
n4289811362,050029,立水桥南B出口,立水桥南B出口,,40.040008,116.4081586,,,2,r1659510,,,,,
n340262425,130039,立水桥(上行),立水桥,,40.0516265,116.4061753,,,0,r8047928,,,,,
r8047928,130039,立水桥,立水桥,,40.0515049,116.4057013,,,1,,,,,,
n11335211396,130039,立水桥A出口,立水桥A出口,,40.0517579,116.4054733,,,2,r8047928,,,,,
n340262426,050025,天通苑南(上行),天通苑南,,40.0651292,116.4065409,,,0,r1659509,,,,,
r1659509,050025,天通苑南,天通苑南,,40.065196285714286,116.40651618571428,,,1,,,,,,
n11472613946,050025,天通苑南出口,天通苑南出口,,40.0645706,116.4065623,,,2,r1659509,,,,,
n340262455,050023,天通苑(上行),天通苑,,40.0737767,116.4066667,,,0,r1659507,,,,,
r1659507,050023,天通苑,天通苑,,40.0737747,116.4066402,,,1,,,,,,
n340262543,050021,天通苑北(上行),天通苑北,,40.0820901,116.4067882,,,0,r1659508,,,,,
r1659508,050021,天通苑北,天通苑北,,40.0820885,116.4067673,,,1,,,,,,
n5687495580,050021,天通苑北(下行),天通苑北,,40.0820874,116.4067459,,,0,r1659508,,,,,
n1357687998,050023,天通苑(下行),天通苑,,40.0737835,116.406614,,,0,r1659507,,,,,
n1357688158,050025,天通苑南(下行),天通苑南,,40.0651271,116.4064854,,,0,r1659509,,,,,
n1306482860,130039,立水桥(下行),立水桥,,40.0516373,116.4061486,,,0,r8047928,,,,,
n1357687987,050029,立水桥南(下行),立水桥南,,40.0404878,116.408284,,,0,r1659510,,,,,
n7896842488,050031,北苑路北(下行),北苑路北,,40.0290197,116.4118736,,,0,r1659505,,,,,
n1094073255,150035,大屯路东(下行),大屯路东,,40.0025371,116.4110224,,,0,r1659506,,,,,
n1350293260,050035,惠新西街北口(下行),惠新西街北口,,39.9861787,116.4108896,,,0,r1651802,,,,,
n1350293262,100021,惠新西街南口(下行),惠新西街南口,,39.9759567,116.4112695,,,0,r8060970,,,,,
n1357810257,120043,和平西桥(下行),和平西桥,,39.9666802,116.4117077,,,0,r1659647,,,,,
n1357810260,050041,和平里北街(下行),和平里北街,,39.9573904,116.4121496,,,0,r1659648,,,,,
n1357810270,020015,雍和宫(下行),雍和宫,,39.9469688,116.4100754,,,0,r7842107,,,,,
n1357810242,980019,北新桥(下行),北新桥,,39.9394072,116.4107992,,,0,r1659646,,,,,
n1357810263,050047,张自忠路(下行),张自忠路,,39.932285,116.4112084,,,0,r1659649,,,,,
n3416862536,060041,东四(下行),东四,,39.9230702,116.4115746,,,0,r1659645,,,,,
n1357810266,050051,灯市口(下行),灯市口,,39.9154119,116.4117401,,,0,r1659650,,,,,
n1357810241,050053,东单(下行),东单,,39.9068683,116.4122459,,,0,r1603640,,,,,
n1359089771,020009,崇文门(下行),崇文门,,39.8994899,116.4122698,,,0,r8047911,,,,,
n1359090017,070037,磁器口(下行),磁器口,,39.8916994,116.4125418,,,0,r1660378,,,,,
n1359090015,050059,天坛东门(下行),天坛东门,,39.8822564,116.4144792,,,0,r1660376,,,,,
n1359090018,140053,蒲黄榆(下行),蒲黄榆,,39.8641213,116.4153572,,,0,r1660379,,,,,
n1359090014,050063,刘家窑(下行),刘家窑,,39.8559424,116.4155282,,,0,r1660375,,,,,
n1359090016,900031,宋家庄(下行),宋家庄,,39.844361,116.4220124,,,0,r7950998,,,,,
n6127534422,060009,金安桥(上行),金安桥,,39.9218935,116.1566434,,,0,r9620284,,,,,
r9620284,060009,金安桥,金安桥,,39.9219237,116.156827,,,1,,,,,,
n9635315670,060009,金安桥C出口,金安桥C出口,,39.9226711,116.1560801,,,2,r9620284,,,,,
n6127534571,060011,苹果园(上行),苹果园,,39.9243172,116.1713316,,,0,r9736311,,,,,
r9736311,060011,苹果园,苹果园,,39.9243597,116.1713056,,,1,,,,,,
n10285742570,060011,苹果园E出口,苹果园E出口,,39.9242267,116.1706612,,,2,r9736311,,,,,
n10285742566,060011,苹果园F出口,苹果园F出口,,39.9250394,116.173603,,,2,r9736311,,,,,
n10285742569,060011,苹果园H出口,苹果园H出口,,39.9240019,116.1707111,,,2,r9736311,,,,,
n6127534573,060013,杨庄(上行),杨庄,,39.9264124,116.1795451,,,0,r9813935,,,,,
r9813935,060013,杨庄,杨庄,,39.9264588,116.1795516,,,1,,,,,,
n10554658679,060013,杨庄A出口,杨庄A出口,,39.9265128,116.1796112,,,2,r9813935,,,,,
n10769629454,060013,杨庄B出口,杨庄B出口,,39.9272166,116.1825673,,,2,r9813935,,,,,
n10769589588,060013,杨庄C1出口,杨庄C1出口,,39.9264582,116.1812917,,,2,r9813935,,,,,
n10769580951,060013,杨庄C2出口,杨庄C2出口,,39.9268539,116.1829447,,,2,r9813935,,,,,
n6127534579,060015,西黄村(上行),西黄村,,39.9324095,116.2006105,,,0,r9813934,,,,,
r9813934,060015,西黄村,西黄村,,39.9324935,116.2005982,,,1,,,,,,
n10769594909,060015,西黄村A出口,西黄村A出口,,39.9328787,116.1988962,,,2,r9813934,,,,,
n10554658680,060015,西黄村B出口,西黄村B出口,,39.9326552,116.2014906,,,2,r9813934,,,,,
n10769623105,060015,西黄村C出口,西黄村C出口,,39.9322117,116.2005582,,,2,r9813934,,,,,
n6127534582,060017,廖公庄(上行),廖公庄,,39.931366,116.2208893,,,0,r9813933,,,,,
r9813933,060017,廖公庄,廖公庄,,39.9314101,116.2208854,,,1,,,,,,
n6856770472,060017,廖公庄D出口,廖公庄D出口,,39.9309796,116.2195904,,,2,r9813933,,,,,
n6856770473,060017,廖公庄A出口,廖公庄A出口,,39.9329653,116.2202419,,,2,r9813933,,,,,
n6856770471,060017,廖公庄出口,廖公庄出口,,39.9316671,116.2228167,,,2,r9813933,,,,,
n6127534686,060019,田村(上行),田村,,39.9283497,116.2468915,,,0,r9806935,,,,,
r9806935,060019,田村,田村,,39.9283896,116.2468822,,,1,,,,,,
n8667716851,060019,田村A出口,田村A出口,,39.9285047,116.246546,,,2,r9806935,,,,,
n8667716852,060019,田村B出口,田村B出口,,39.9285226,116.2475756,,,2,r9806935,,,,,
n8667716853,060019,田村D出口,田村D出口,,39.927305,116.2464238,,,2,r9806935,,,,,
n2099471226,060021,海淀五路居(上行),海淀五路居,,39.9313313,116.2708928,,,0,r2684755,,,,,
r2684755,060021,海淀五路居,海淀五路居,,39.931379820000004,116.2714983,,,1,,,,,,
n2099458599,060021,海淀五路居B出口,海淀五路居B出口,,39.9315326,116.271873,,,2,r2684755,,,,,
n7591327876,060021,海淀五路居D出口,海淀五路居D出口,,39.9303751,116.2695599,,,2,r2684755,,,,,
n7591327877,060021,海淀五路居C出口,海淀五路居C出口,,39.9309469,116.2715394,,,2,r2684755,,,,,
n7591327875,060021,海淀五路居A出口,海淀五路居A出口,,39.9319095,116.2693882,,,2,r2684755,,,,,
n4137849447,900061,慈寿寺(上行),慈寿寺,,39.9315156,116.2885877,,,0,r2672957,,,,,
r2672957,900061,慈寿寺,慈寿寺,,39.9315586,116.2888626,,,1,,,,,,
n4137849449,060025,花园桥(上行),花园桥,,39.9310736,116.3041117,,,0,r6157807,,,,,
r6157807,060025,花园桥,花园桥,,39.9312135,116.3039811,,,1,,,,,,
n2144158429,060025,花园桥D2出口,花园桥D2出口,,39.9302709,116.3036167,,,2,r6157807,,,,,
n3923481273,060025,花园桥D1出口,花园桥D1出口,,39.9307588,116.303019,,,2,r6157807,,,,,
n2144158430,060025,花园桥C出口,花园桥C出口,,39.9308053,116.3052898,,,2,r6157807,,,,,
n2144158432,060025,花园桥B2出口,花园桥B2出口,,39.9313458,116.3059936,,,2,r6157807,,,,,
n2144158431,060025,花园桥B1出口,花园桥B1出口,,39.9313453,116.3048565,,,2,r6157807,,,,,
n2144158433,060025,花园桥A出口,花园桥A出口,,39.9313308,116.3034018,,,2,r6157807,,,,,
n4137849442,060027,白石桥南(上行),白石桥南,,39.9312072,116.318605,,,0,r8048031,,,,,
r8048031,060027,白石桥南,白石桥南,,39.9312548,116.318448,,,1,,,,,,
n8675160717,060027,白石桥南A出口,白石桥南A出口,,39.9327039,116.3192111,,,2,r8048031,,,,,
n8675156516,060027,白石桥南B出口,白石桥南B出口,,39.932844,116.3200643,,,2,r8048031,,,,,
n8675160718,060027,白石桥南C出口,白石桥南C出口,,39.9313526,116.3204831,,,2,r8048031,,,,,
n8675160719,060027,白石桥南G出口,白石桥南G出口,,39.930805,116.3182757,,,2,r8048031,,,,,
n8675160720,060027,白石桥南E出口,白石桥南E出口,,39.9313498,116.3174262,,,2,r8048031,,,,,
n11283748467,060029,二里沟(上行),二里沟,,39.9310435,116.3273071,,,0,r16546684,,,,,
r16546684,060029,二里沟,二里沟,,39.9310721,116.3275776,,,1,,,,,,
n11283755472,060029,二里沟A1出口,二里沟A1出口,,39.9313866,116.3268196,,,2,r16546684,,,,,
n11283755475,060029,二里沟A2出口,二里沟A2出口,,39.9326385,116.3270555,,,2,r16546684,,,,,
n11283755473,060029,二里沟出口,二里沟出口,,39.93216,116.32711,,,2,r16546684,,,,,
n11283755474,060029,二里沟B出口,二里沟B出口,,39.9326972,116.3276136,,,2,r16546684,,,,,
n11283755471,060029,二里沟C出口,二里沟C出口,,39.93037,116.32785,,,2,r16546684,,,,,
n11283748466,060029,二里沟D出口,二里沟D出口,,39.9308756,116.32619,,,2,r16546684,,,,,
n4137849444,060031,车公庄西(上行),车公庄西,,39.9310249,116.3379919,,,0,r6157806,,,,,
r6157806,060031,车公庄西,车公庄西,,39.931061,116.3379903,,,1,,,,,,
n4137849445,060033,车公庄(上行),车公庄,,39.930949,116.3486293,,,0,r1650228,,,,,
r1650228,060033,车公庄,车公庄,,39.9311554,116.3493426,,,1,,,,,,
n4139856527,060035,平安里(上行),平安里,,39.9312836,116.3651717,,,0,r2068918,,,,,
r2068918,060035,平安里,平安里,,39.9313232,116.3651624,,,1,,,,,,
n11992333189,060035,平安里E出口,平安里E出口,,39.9313812,116.3632469,,,2,r2068918,,,,,
n11992333190,060035,平安里H出口,平安里H出口,,39.9309557,116.3640303,,,2,r2068918,,,,,
n4139856519,060037,北海北(上行),北海北,,39.9317812,116.3802196,,,0,r6159576,,,,,
r6159576,060037,北海北,北海北,,39.9317985,116.3800445,,,1,,,,,,
n2433565012,060037,北海北D出口,北海北D出口,,39.9316322,116.379234,,,2,r6159576,,,,,
n2433565023,060037,北海北A出口,北海北A出口,,39.9319758,116.3788037,,,2,r6159576,,,,,
n13239733934,060037,北海北B出口,北海北B出口,,39.9322408,116.3819986,,,2,r6159576,,,,,
n4139856525,060039,南锣鼓巷(上行),南锣鼓巷,,39.931594,116.3966752,,,0,r7842109,,,,,
r7842109,060039,南锣鼓巷,南锣鼓巷,,39.9316439,116.3966927,,,1,,,,,,
n4400766340,060039,南锣鼓巷A出口,南锣鼓巷A出口,,39.9318691,116.3964986,,,2,r7842109,,,,,
n4400766339,060039,南锣鼓巷B出口,南锣鼓巷B出口,,39.9318263,116.3976606,,,2,r7842109,,,,,
n4139856523,060041,东四(上行),东四,,39.9229155,116.4102509,,,0,r7842108,,,,,
r7842108,060041,东四,东四,,39.9229744,116.4102477,,,1,,,,,,
n1990853188,060041,东四D出口,东四D出口,,39.9226136,116.410702,,,2,r7842108,,,,,
n6787169488,060041,东四E出口,东四E出口,,39.923311,116.4092146,,,2,r7842108,,,,,
n6454510152,060041,东四B出口,东四B出口,,39.9236429,116.4118476,,,2,r7842108,,,,,
n6787169487,060041,东四G出口,东四G出口,,39.9225891,116.410285,,,2,r7842108,,,,,
n4139856521,060043,朝阳门(上行),朝阳门,,39.9230328,116.4274038,,,0,r8048009,,,,,
r8048009,060043,朝阳门,朝阳门,,39.9230647,116.4279504,,,1,,,,,,
n5994862291,060043,朝阳门H出口,朝阳门H出口,,39.9227339,116.4251962,,,2,r8048009,,,,,
n6694898270,060043,朝阳门E出口,朝阳门E出口,,39.9232665,116.4263436,,,2,r8048009,,,,,
n6694898271,060043,朝阳门G出口,朝阳门G出口,,39.9228098,116.426349,,,2,r8048009,,,,,
n2468419434,060045,东大桥(上行),东大桥,,39.9214284,116.4455655,,,0,r6159577,,,,,
r6159577,060045,东大桥,东大桥,,39.921482,116.4455603,,,1,,,,,,
n7672184054,060045,东大桥A出口,东大桥A出口,,39.9222382,116.4446127,,,2,r6159577,,,,,
n7672184056,060045,东大桥B出口,东大桥B出口,,39.9222423,116.4463806,,,2,r6159577,,,,,
n11203076219,060045,东大桥出口,东大桥出口,,39.92232,116.44592,,,2,r6159577,,,,,
n10675884486,060045,东大桥出口,东大桥出口,,39.9213465,116.4451141,,,2,r6159577,,,,,
n7672184055,060045,东大桥D1出口,东大桥D1出口,,39.9216588,116.4461224,,,2,r6159577,,,,,
n7672184057,060045,东大桥D2出口,东大桥D2出口,,39.9207128,116.4452226,,,2,r6159577,,,,,
n2468419432,060047,呼家楼(上行),呼家楼,,39.9219178,116.4555199,,,0,r8047926,,,,,
r8047926,060047,呼家楼,呼家楼,,39.9220995,116.4554956,,,1,,,,,,
n3450796157,060047,呼家楼C1出口,呼家楼C1出口,,39.921636,116.4558843,,,2,r8047926,,,,,
n3450796158,060047,呼家楼C2出口,呼家楼C2出口,,39.9205107,116.4560131,,,2,r8047926,,,,,
n3450796161,060047,呼家楼B出口,呼家楼B出口,,39.9229669,116.455836,,,2,r8047926,,,,,
n3450796155,060047,呼家楼G出口,呼家楼G出口,,39.9218334,116.4543796,,,2,r8047926,,,,,
n3450796160,060047,呼家楼A出口,呼家楼A出口,,39.9224814,116.4544091,,,2,r8047926,,,,,
n3450796159,060047,呼家楼H出口,呼家楼H出口,,39.922216,116.4536661,,,2,r8047926,,,,,
n1840733228,060047,呼家楼出口,呼家楼出口,,39.9218323,116.4543424,,,2,r8047926,,,,,
n3450796156,060047,呼家楼D出口,呼家楼D出口,,39.9207391,116.4549938,,,2,r8047926,,,,,
n2468419429,140071,金台路(上行),金台路,,39.9215091,116.4724784,,,0,r4622761,,,,,
r4622761,140071,金台路,金台路,,39.9215918,116.4723407,,,1,,,,,,
n4832116904,140071,金台路D出口,金台路D出口,,39.9214776,116.471555,,,2,r4622761,,,,,
n4832116905,140071,金台路A出口,金台路A出口,,39.9218211,116.4713152,,,2,r4622761,,,,,
n4832116906,140071,金台路B出口,金台路B出口,,39.9217664,116.4723568,,,2,r4622761,,,,,
n4832116907,140071,金台路D出口,金台路D出口,,39.9214501,116.4726076,,,2,r4622761,,,,,
n4832116908,140071,金台路E出口,金台路E出口,,39.9221879,116.4717438,,,2,r4622761,,,,,
n4832116909,140071,金台路F出口,金台路F出口,,39.9231358,116.4723373,,,2,r4622761,,,,,
n4148548620,060051,十里堡(上行),十里堡,,39.9215626,116.4959711,,,0,r6170652,,,,,
r6170652,060051,十里堡,十里堡,,39.9216269,116.4960424,,,1,,,,,,
n4148548618,060053,青年路(上行),青年路,,39.9216491,116.5111323,,,0,r6170651,,,,,
r6170651,060053,青年路,青年路,,39.9216819,116.5108366,,,1,,,,,,
n5257010481,060053,青年路C出口,青年路C出口,,39.9215331,116.5121743,,,2,r6170651,,,,,
n5257010482,060053,青年路B出口,青年路B出口,,39.922232,116.5128881,,,2,r6170651,,,,,
n11559318415,060053,青年路D出口,青年路D出口,,39.9215976,116.5101639,,,2,r6170651,,,,,
n3416840247,060055,褡裢坡(上行),褡裢坡,,39.9226389,116.5583652,,,0,r4726852,,,,,
r4726852,060055,褡裢坡,褡裢坡,,39.9226731,116.5581345,,,1,,,,,,
n11542917162,060055,褡裢坡B出口,褡裢坡B出口,,39.9233459,116.5583424,,,2,r4726852,,,,,
n11542917163,060055,褡裢坡C出口,褡裢坡C出口,,39.9226712,116.5589137,,,2,r4726852,,,,,
n11542917161,060055,褡裢坡D出口,褡裢坡D出口,,39.9223297,116.5572561,,,2,r4726852,,,,,
n3384472063,060057,黄渠(上行),黄渠,,39.9227753,116.5730944,,,0,r4726853,,,,,
r4726853,060057,黄渠,黄渠,,39.9228365,116.5730712,,,1,,,,,,
n11542805942,060057,黄渠A出口,黄渠A出口,,39.9234076,116.5712465,,,2,r4726853,,,,,
n11542805943,060057,黄渠B出口,黄渠B出口,,39.9236997,116.5728344,,,2,r4726853,,,,,
n11542805944,060057,黄渠C出口,黄渠C出口,,39.9229139,116.5732313,,,2,r4726853,,,,,
n11542805945,060057,黄渠D出口,黄渠D出口,,39.92277,116.5713672,,,2,r4726853,,,,,
n4148548616,060059,常营(上行),常营,,39.9242649,116.5936436,,,0,r6170650,,,,,
r6170650,060059,常营,常营,,39.92433028000001,116.59427836,,,1,,,,,,
n11816785332,060059,常营E出口,常营E出口,,39.92438,116.5952,,,2,r6170650,,,,,
n12399943037,060059,常营出口,常营出口,,39.9251137,116.5932228,,,2,r6170650,,,,,
n3384472073,060061,草房(上行),草房,,39.9234237,116.6103267,,,0,r6172388,,,,,
r6172388,060061,草房,草房,,39.9235091,116.6103044,,,1,,,,,,
n9209966180,060061,草房A出口,草房A出口,,39.9236525,116.6093712,,,2,r6172388,,,,,
n9209966181,060061,草房D出口,草房D出口,,39.923131,116.6099631,,,2,r6172388,,,,,
n9209966182,060061,草房C出口,草房C出口,,39.9233237,116.6110444,,,2,r6172388,,,,,
n9209966183,060061,草房B出口,草房B出口,,39.9243961,116.610579,,,2,r6172388,,,,,
n3416840273,060063,物资学院路(上行),物资学院路,,39.9258964,116.6334969,,,0,r6172393,,,,,
r6172393,060063,物资学院路,物资学院路,,39.9259297,116.6334973,,,1,,,,,,
n9174345649,060063,物资学院路A出口,物资学院路A出口,,39.9259799,116.6329776,,,2,r6172393,,,,,
n9174345654,060063,物资学院路B出口,物资学院路B出口,,39.9258289,116.6351286,,,2,r6172393,,,,,
n9174345659,060063,物资学院路D出口,物资学院路D出口,,39.9254932,116.6331641,,,2,r6172393,,,,,
n4150606943,060065,通州北关(上行),通州北关,,39.9174567,116.6554601,,,0,r6172392,,,,,
r6172392,060065,通州北关,通州北关,,39.9174644,116.6555297,,,1,,,,,,
n9209966177,060065,通州北关A出口,通州北关A出口,,39.9178959,116.6545871,,,2,r6172392,,,,,
n9209966178,060065,通州北关B出口,通州北关B出口,,39.9181783,116.6557943,,,2,r6172392,,,,,
n9209966179,060065,通州北关C出口,通州北关C出口,,39.9158539,116.6555686,,,2,r6172392,,,,,
n4150606934,060069,北运河西(上行),北运河西,,39.9017338,116.6821801,,,0,r6172387,,,,,
r6172387,060069,北运河西,北运河西,,39.9018256,116.6819734,,,1,,,,,,
n4417644117,060069,北运河西B出口,北运河西B出口,,39.9018054,116.6834802,,,2,r6172387,,,,,
n9209966164,060069,北运河西A出口,北运河西A出口,,39.9023123,116.6814262,,,2,r6172387,,,,,
n6172173752,060071,北运河东(上行),北运河东,,39.9020274,116.7018192,,,0,r9925335,,,,,
r9925335,060071,北运河东,北运河东,,39.9021187,116.7018094,,,1,,,,,,
n9209966170,060071,北运河东D出口,北运河东D出口,,39.9019487,116.6999492,,,2,r9925335,,,,,
n9209966172,060071,北运河东C出口,北运河东C出口,,39.9018718,116.7020739,,,2,r9925335,,,,,
n9209966171,060071,北运河东B出口,北运河东B出口,,39.9023349,116.7020626,,,2,r9925335,,,,,
n4150606939,060073,郝家府(上行),郝家府,,39.9020892,116.711363,,,0,r6172390,,,,,
r6172390,060073,郝家府,郝家府,,39.9021403,116.7111595,,,1,,,,,,
n6068627742,060073,郝家府A出口,郝家府A出口,,39.9022022,116.7093183,,,2,r6172390,,,,,
n6068627743,060073,郝家府A出口,郝家府A出口,,39.9022635,116.7107618,,,2,r6172390,,,,,
n6068627745,060073,郝家府C出口,郝家府C出口,,39.90124,116.7123865,,,2,r6172390,,,,,
n6068627744,060073,郝家府D出口,郝家府D出口,,39.9011809,116.7108683,,,2,r6172390,,,,,
n9209966169,060073,郝家府B出口,郝家府B出口,,39.9018924,116.712244,,,2,r6172390,,,,,
n4150606937,060075,东夏园(上行),东夏园,,39.9021825,116.7274377,,,0,r6172389,,,,,
r6172389,060075,东夏园,东夏园,,39.9022116,116.7272447,,,1,,,,,,
n6068627732,060075,东夏园A出口,东夏园A出口,,39.9023876,116.7265414,,,2,r6172389,,,,,
n6068627734,060075,东夏园B出口,东夏园B出口,,39.9026021,116.7291893,,,2,r6172389,,,,,
n6068627733,060075,东夏园D出口,东夏园D出口,,39.9015674,116.7262708,,,2,r6172389,,,,,
n9209966173,060075,东夏园C出口,东夏园C出口,,39.9015479,116.7284164,,,2,r6172389,,,,,
n4150606941,060077,潞城(上行),潞城,,39.901521,116.7418812,,,0,r6172391,,,,,
r6172391,060077,潞城,潞城,,39.9016234,116.7416309,,,1,,,,,,
n9209966174,060077,潞城D出口,潞城D出口,,39.901068,116.7409756,,,2,r6172391,,,,,
n9209966175,060077,潞城B出口,潞城B出口,,39.9016023,116.7425327,,,2,r6172391,,,,,
n12229030036,060079,潞阳(上行),潞阳,,39.8889097,116.7508555,,,0,r20022685,,,,,
r20022685,060079,潞阳,潞阳,,39.8888289,116.7510869,,,1,,,,,,
n13417552675,060079,潞阳(下行),潞阳,,39.8888163,116.7513102,,,0,r20022685,,,,,
n4150606942,060077,潞城(下行),潞城,,39.901627,116.741919,,,0,r6172391,,,,,
n4150606938,060075,东夏园(下行),东夏园,,39.9022645,116.727439,,,0,r6172389,,,,,
n4150606940,060073,郝家府(下行),郝家府,,39.9021789,116.7113584,,,0,r6172390,,,,,
n6172173751,060071,北运河东(下行),北运河东,,39.9022108,116.7018207,,,0,r9925335,,,,,
n4150606935,060069,北运河西(下行),北运河西,,39.9018355,116.6822193,,,0,r6172387,,,,,
n4150606944,060065,通州北关(下行),通州北关,,39.9174745,116.6555958,,,0,r6172392,,,,,
n4150606945,060063,物资学院路(下行),物资学院路,,39.9259644,116.6334967,,,0,r6172393,,,,,
n4150606936,060061,草房(下行),草房,,39.9235794,116.6102699,,,0,r6172388,,,,,
n4148548617,060059,常营(下行),常营,,39.9243612,116.5936317,,,0,r6170650,,,,,
n3416840249,060057,黄渠(下行),黄渠,,39.9228927,116.5730502,,,0,r4726853,,,,,
n3416840248,060055,褡裢坡(下行),褡裢坡,,39.9227035,116.5583505,,,0,r4726852,,,,,
n4148548619,060053,青年路(下行),青年路,,39.9217932,116.5111093,,,0,r6170651,,,,,
n4148548621,060051,十里堡(下行),十里堡,,39.9217003,116.4959691,,,0,r6170652,,,,,
n2468419430,140071,金台路(下行),金台路,,39.9217058,116.4724805,,,0,r4622761,,,,,
n2468419431,060047,呼家楼(下行),呼家楼,,39.921968,116.4555211,,,0,r8047926,,,,,
n2468419433,060045,东大桥(下行),东大桥,,39.9215232,116.4455546,,,0,r6159577,,,,,
n4139856522,060043,朝阳门(下行),朝阳门,,39.9231486,116.4274132,,,0,r8048009,,,,,
n4139856524,060041,东四(下行),东四,,39.9230398,116.4102469,,,0,r7842108,,,,,
n4139856526,060039,南锣鼓巷(下行),南锣鼓巷,,39.9317026,116.3967119,,,0,r7842109,,,,,
n4139856520,060037,北海北(下行),北海北,,39.9318253,116.3802142,,,0,r6159576,,,,,
n4139856528,060035,平安里(下行),平安里,,39.9313596,116.3651691,,,0,r2068918,,,,,
n4137849446,060033,车公庄(下行),车公庄,,39.9310974,116.3486306,,,0,r1650228,,,,,
n3053715983,060031,车公庄西(下行),车公庄西,,39.9310984,116.3379924,,,0,r6157806,,,,,
n11283748468,060029,二里沟(下行),二里沟,,39.9311178,116.3273057,,,0,r16546684,,,,,
n4137849443,060027,白石桥南(下行),白石桥南,,39.9312991,116.3186035,,,0,r8048031,,,,,
n4137849450,060025,花园桥(下行),花园桥,,39.9311764,116.304113,,,0,r6157807,,,,,
n4137849448,900061,慈寿寺(下行),慈寿寺,,39.9317062,116.288585,,,0,r2672957,,,,,
n2099471227,060021,海淀五路居(下行),海淀五路居,,39.9314412,116.2708883,,,0,r2684755,,,,,
n6127534685,060019,田村(下行),田村,,39.9284472,116.2468943,,,0,r9806935,,,,,
n6127534581,060017,廖公庄(下行),廖公庄,,39.9314936,116.2208809,,,0,r9813933,,,,,
n6127534534,060015,西黄村(下行),西黄村,,39.9325692,116.2006193,,,0,r9813934,,,,,
n6127534572,060013,杨庄(下行),杨庄,,39.926508,116.1795474,,,0,r9813935,,,,,
n6127534570,060011,苹果园(下行),苹果园,,39.9244157,116.1712875,,,0,r9736311,,,,,
n6127534568,060009,金安桥(下行),金安桥,,39.9220081,116.1566363,,,0,r9620284,,,,,
n3369459828,070021,北京西站(上行),北京西站,,39.8935406,116.3150518,,,0,r9803586,,,,,
r9803586,070021,北京西站,北京西站,,39.8935411,116.3151056,,,1,,,,,,
n3369459897,070023,湾子(上行),湾子,,39.8889046,116.3213673,,,0,r4630723,,,,,
r4630723,070023,湾子,湾子,,39.8889326,116.3213598,,,1,,,,,,
n3369459799,070025,达官营(上行),达官营,,39.8881785,116.331697,,,0,r4630728,,,,,
r4630728,070025,达官营,达官营,,39.888892,116.3293717,,,1,,,,,,
n3369458280,070027,广安门内(上行),广安门内,,39.8884513,116.3516838,,,0,r4630718,,,,,
r4630718,070027,广安门内,广安门内,,39.8885681,116.351727,,,1,,,,,,
n10862421887,070027,广安门内C出口,广安门内C出口,,39.8878156,116.3519256,,,2,r4630718,,,,,
n3369459390,070029,菜市口(上行),菜市口,,39.8879142,116.3675067,,,0,r9736321,,,,,
r9736321,070029,菜市口,菜市口,,39.887991,116.3682164,,,1,,,,,,
n8830757627,070029,菜市口E出口,菜市口E出口,,39.8883437,116.3673055,,,2,r9736321,,,,,
n8830757632,070029,菜市口G出口,菜市口G出口,,39.8875258,116.3675852,,,2,r9736321,,,,,
n8830757651,070029,菜市口F出口,菜市口F出口,,39.8883574,116.3692585,,,2,r9736321,,,,,
n3369459806,070031,虎坊桥(上行),虎坊桥,,39.8883373,116.3773932,,,0,r4630727,,,,,
r4630727,070031,虎坊桥,虎坊桥,,39.8883975,116.3774806,,,1,,,,,,
n4844392642,070031,虎坊桥出口,虎坊桥出口,,39.8879058,116.380333,,,2,r4630727,,,,,
n6732322957,070031,虎坊桥出口,虎坊桥出口,,39.8883913,116.3776933,,,2,r4630727,,,,,
n6731175877,070031,虎坊桥出口,虎坊桥出口,,39.8884156,116.3790265,,,2,r4630727,,,,,
n3369459913,070033,珠市口(上行),珠市口,,39.8900482,116.3930842,,,0,r15665232,,,,,
r15665232,070033,珠市口,珠市口,,39.8893117,116.3921937,,,1,,,,,,
n7149581579,070033,珠市口A出口,珠市口A出口,,39.8901127,116.3913645,,,2,r15665232,,,,,
n7589864652,070033,珠市口C出口,珠市口C出口,,39.8898543,116.3933391,,,2,r15665232,,,,,
n7589864651,070033,珠市口D出口,珠市口D出口,,39.8891672,116.39103,,,2,r15665232,,,,,
n7589864650,070033,珠市口E出口,珠市口E出口,,39.8890723,116.3915609,,,2,r15665232,,,,,
n3369459930,070035,桥湾(上行),桥湾,,39.891248,116.4032069,,,0,r4630721,,,,,
r4630721,070035,桥湾,桥湾,,39.8912849,116.4022485,,,1,,,,,,
n3369459945,070037,磁器口(上行),磁器口,,39.8916421,116.4126275,,,0,r9803542,,,,,
r9803542,070037,磁器口,磁器口,,39.8917025,116.4126199,,,1,,,,,,
n3369459811,070039,广渠门内(上行),广渠门内,,39.8922475,116.4277302,,,0,r4630719,,,,,
r4630719,070039,广渠门内,广渠门内,,39.8922863,116.4277207,,,1,,,,,,
n3369459965,070041,广渠门外(上行),广渠门外,,39.8922244,116.4430499,,,0,r4630720,,,,,
r4630720,070041,广渠门外,广渠门外,,39.8923066,116.4430351,,,1,,,,,,
n3369459955,100041,双井(上行),双井,,39.8920267,116.4552294,,,0,r8378140,,,,,
r8378140,100041,双井,双井,,39.8920933,116.4552314,,,1,,,,,,
n6780237716,100041,双井A出口,双井A出口,,39.8924404,116.4543676,,,2,r8378140,,,,,
n6780237778,100041,双井B2出口,双井B2出口,,39.8923745,116.4568352,,,2,r8378140,,,,,
n6780237774,100041,双井D出口,双井D出口,,39.8918221,116.4545554,,,2,r8378140,,,,,
n3369459952,140065,九龙山(上行),九龙山,,39.8918579,116.4714337,,,0,r9736326,,,,,
r9736326,140065,九龙山,九龙山,,39.8921089,116.4716849,,,1,,,,,,
n6780237764,140065,九龙山A出口,九龙山A出口,,39.892221,116.4706085,,,2,r9736326,,,,,
n6780237698,140065,九龙山B出口,九龙山B出口,,39.8931598,116.4720136,,,2,r9736326,,,,,
n6780237763,140065,九龙山D出口,九龙山D出口,,39.8916162,116.4704476,,,2,r9736326,,,,,
n6780237715,140065,九龙山E出口,九龙山E出口,,39.892184,116.4737521,,,2,r9736326,,,,,
n6780237782,140065,九龙山G出口,九龙山G出口,,39.8916121,116.4724002,,,2,r9736326,,,,,
n3369459958,070047,大郊亭(上行),大郊亭,,39.8921344,116.481348,,,0,r4630717,,,,,
r4630717,070047,大郊亭,大郊亭,,39.8921857,116.4813499,,,1,,,,,,
n6780237714,070047,大郊亭A出口,大郊亭A出口,,39.8922037,116.4804869,,,2,r4630717,,,,,
n6780237766,070047,大郊亭B出口,大郊亭B出口,,39.8926565,116.482858,,,2,r4630717,,,,,
n6780237700,070047,大郊亭C出口,大郊亭C出口,,39.8915596,116.4827561,,,2,r4630717,,,,,
n3369459932,070049,百子湾(上行),百子湾,,39.891307,116.49004,,,0,r4630726,,,,,
r4630726,070049,百子湾,百子湾,,39.8913756,116.4902447,,,1,,,,,,
n6780237732,070049,百子湾A1出口,百子湾A1出口,,39.8915011,116.4907786,,,2,r4630726,,,,,
n6780237706,070049,百子湾A2出口,百子湾A2出口,,39.8922006,116.4907519,,,2,r4630726,,,,,
n6780237760,070049,百子湾A3出口,百子湾A3出口,,39.8922006,116.491857,,,2,r4630726,,,,,
n6780237761,070049,百子湾B出口,百子湾B出口,,39.8913765,116.4936858,,,2,r4630726,,,,,
n3369459385,070051,化工(上行),化工,,39.8840011,116.4974504,,,0,r4630713,,,,,
r4630713,070051,化工,化工,,39.8840067,116.4975172,,,1,,,,,,
n11292812964,070051,化工A出口,化工A出口,,39.8868828,116.4971565,,,2,r4630713,,,,,
n6780237733,070051,化工D出口,化工D出口,,39.8855369,116.4971566,,,2,r4630713,,,,,
n6780237723,070051,化工C出口,化工C出口,,39.8854895,116.4977899,,,2,r4630713,,,,,
n3369459372,070053,南楼梓庄(上行),南楼梓庄,,39.8734417,116.4953016,,,0,r4630714,,,,,
r4630714,070053,南楼梓庄,南楼梓庄,,39.8733935,116.4954124,,,1,,,,,,
n6780237750,070053,南楼梓庄A出口,南楼梓庄A出口,,39.8741953,116.4950059,,,2,r4630714,,,,,
n6780237741,070053,南楼梓庄B出口,南楼梓庄B出口,,39.873755,116.4960573,,,2,r4630714,,,,,
n6780237726,070053,南楼梓庄C出口,南楼梓庄C出口,,39.8725652,116.4951775,,,2,r4630714,,,,,
n6780237701,070053,南楼梓庄D出口,南楼梓庄D出口,,39.8728655,116.4945124,,,2,r4630714,,,,,
n3369459362,070055,欢乐谷景区(上行),欢乐谷景区,,39.8656798,116.4930195,,,0,r4630722,,,,,
r4630722,070055,欢乐谷景区,欢乐谷景区,,39.8656674,116.4930838,,,1,,,,,,
n6780237756,070055,欢乐谷景区B出口,欢乐谷景区B出口,,39.866217,116.4935142,,,2,r4630722,,,,,
n6780238186,070055,欢乐谷景区C出口,欢乐谷景区C出口,,39.8644569,116.4935249,,,2,r4630722,,,,,
n3369459338,070057,垡头(上行),垡头,,39.8595365,116.5057128,,,0,r4630716,,,,,
r4630716,070057,垡头,垡头,,39.859574,116.5057156,,,1,,,,,,
n6780237739,070057,垡头A出口,垡头A出口,,39.8597868,116.5046133,,,2,r4630716,,,,,
n6780237743,070057,垡头C出口,垡头C出口,,39.8593858,116.5061259,,,2,r4630716,,,,,
n3369459329,070059,双合(上行),双合,,39.8580696,116.5222993,,,0,r4630715,,,,,
r4630715,070059,双合,双合,,39.8581385,116.5223453,,,1,,,,,,
n6780237771,070059,双合A出口,双合A出口,,39.8591219,116.5205451,,,2,r4630715,,,,,
n6780238193,070059,双合B出口,双合B出口,,39.8583807,116.5222563,,,2,r4630715,,,,,
n6780237709,070059,双合C出口,双合C出口,,39.8578536,116.5217419,,,2,r4630715,,,,,
n6780237694,070059,双合D出口,双合D出口,,39.8580513,116.5196168,,,2,r4630715,,,,,
n3369459319,070061,焦化厂(上行),焦化厂,,39.854229,116.5315731,,,0,r4630724,,,,,
r4630724,070061,焦化厂,焦化厂,,39.8542896,116.531614,,,1,,,,,,
n6780237696,070061,焦化厂A出口,焦化厂A出口,,39.8549834,116.5308233,,,2,r4630724,,,,,
n6780237729,070061,焦化厂B出口,焦化厂B出口,,39.8541062,116.5323468,,,2,r4630724,,,,,
n6780237697,070061,焦化厂C出口,焦化厂C出口,,39.8537566,116.5319713,,,2,r4630724,,,,,
n6780237736,070061,焦化厂D出口,焦化厂D出口,,39.85465,116.5303673,,,2,r4630724,,,,,
n7117305932,070063,黄厂(上行),黄厂,,39.8478945,116.5475282,,,0,r10558273,,,,,
r10558273,070063,黄厂,黄厂,,39.8479616,116.5475285,,,1,,,,,,
n7117305936,070065,郎辛庄(上行),郎辛庄,,39.8554863,116.5641092,,,0,r10558274,,,,,
r10558274,070065,郎辛庄,郎辛庄,,39.8555351,116.5641046,,,1,,,,,,
n7117305939,070067,黑庄户(上行),黑庄户,,39.8576464,116.5927832,,,0,r10558275,,,,,
r10558275,070067,黑庄户,黑庄户,,39.8577135,116.5927827,,,1,,,,,,
n7117305950,070069,万盛西(上行),万盛西,,39.8623956,116.6267082,,,0,r10558276,,,,,
r10558276,070069,万盛西,万盛西,,39.8624408,116.6267073,,,1,,,,,,
n7117305952,070071,万盛东(上行),万盛东,,39.8622871,116.6509051,,,0,r10558277,,,,,
r10558277,070071,万盛东,万盛东,,39.86234982,116.6505845,,,1,,,,,,
n8498001930,070071,万盛东A出口,万盛东A出口,,39.8626796,116.6504341,,,2,r10558277,,,,,
n11243773151,070071,万盛东A出口,万盛东A出口,,39.8626984,116.6508834,,,2,r10558277,,,,,
n6930098626,070071,万盛东C出口,万盛东C出口,,39.8619919,116.6523975,,,2,r10558277,,,,,
n6930098625,070071,万盛东D出口,万盛东D出口,,39.8620023,116.6502509,,,2,r10558277,,,,,
n7117305972,070073,群芳(上行),群芳,,39.862254,116.6647132,,,0,r10558278,,,,,
r10558278,070073,群芳,群芳,,39.862345160000004,116.66437778,,,1,,,,,,
n8498001931,070073,群芳出口,群芳出口,,39.8626837,116.6639203,,,2,r10558278,,,,,
n8498001934,070073,群芳出口,群芳出口,,39.8620249,116.6639686,,,2,r10558278,,,,,
n8498001933,070073,群芳出口,群芳出口,,39.8620002,116.6657335,,,2,r10558278,,,,,
n8498001932,070073,群芳出口,群芳出口,,39.8626631,116.6659373,,,2,r10558278,,,,,
n7117305969,070075,高楼金(上行),高楼金,,39.8613676,116.6794826,,,0,r10558279,,,,,
r10558279,070075,高楼金,高楼金,,39.8618619,116.6795103,,,1,,,,,,
n8498013140,070075,高楼金出口,高楼金出口,,39.8615802,116.6785276,,,2,r10558279,,,,,
n8498013139,070075,高楼金出口,高楼金出口,,39.8614319,116.680035,,,2,r10558279,,,,,
n7117305954,070077,花庄(上行),花庄,,39.8554379,116.6888584,,,0,r10558280,,,,,
r10558280,070077,花庄,花庄,,39.8553801,116.6890142,,,1,,,,,,
n10216220694,070079,环球度假区(上行),环球度假区,,39.8482511,116.6735204,,,0,r13131768,,,,,
n10216220695,070079,环球度假区(下行),环球度假区,,39.8481074,116.673519,,,0,r13131768,,,,,
n7117305975,070077,花庄(下行),花庄,,39.8553866,116.6890003,,,0,r10558280,,,,,
n7117305978,070075,高楼金(下行),高楼金,,39.8616651,116.679526,,,0,r10558279,,,,,
n7117305973,070073,群芳(下行),群芳,,39.8623732,116.6647092,,,0,r10558278,,,,,
n7117305953,070071,万盛东(下行),万盛东,,39.8623791,116.6509051,,,0,r10558277,,,,,
n7117305949,070069,万盛西(下行),万盛西,,39.8624645,116.6267062,,,0,r10558276,,,,,
n6930098571,070067,黑庄户(下行),黑庄户,,39.8577605,116.5927737,,,0,r10558275,,,,,
n7117305937,070065,郎辛庄(下行),郎辛庄,,39.8555723,116.5640941,,,0,r10558274,,,,,
n7117305933,070063,黄厂(下行),黄厂,,39.8480151,116.5475233,,,0,r10558273,,,,,
n3369459320,070061,焦化厂(下行),焦化厂,,39.8543362,116.5316527,,,0,r4630724,,,,,
n3369459330,070059,双合(下行),双合,,39.8582386,116.5223618,,,0,r4630715,,,,,
n3369459342,070057,垡头(下行),垡头,,39.8596368,116.505713,,,0,r4630716,,,,,
n3369459361,070055,欢乐谷景区(下行),欢乐谷景区,,39.8656515,116.4931613,,,0,r4630722,,,,,
n3369459371,070053,南楼梓庄(下行),南楼梓庄,,39.8733342,116.4955547,,,0,r4630714,,,,,
n3369459386,070051,化工(下行),化工,,39.8840055,116.4975941,,,0,r4630713,,,,,
n3369459941,070049,百子湾(下行),百子湾,,39.8914417,116.49004,,,0,r4630726,,,,,
n3369459808,070047,大郊亭(下行),大郊亭,,39.8922346,116.4813479,,,0,r4630717,,,,,
n3369459953,140065,九龙山(下行),九龙山,,39.8919444,116.4714306,,,0,r9736326,,,,,
n3369459960,100041,双井(下行),双井,,39.8921412,116.4552334,,,0,r8378140,,,,,
n3369459820,070041,广渠门外(下行),广渠门外,,39.8923685,116.4430468,,,0,r4630720,,,,,
n3369459819,070039,广渠门内(下行),广渠门内,,39.8923493,116.4277323,,,0,r4630719,,,,,
n3369459948,070037,磁器口(下行),磁器口,,39.8917862,116.4126101,,,0,r9803542,,,,,
n3369459936,070035,桥湾(下行),桥湾,,39.8913159,116.401324,,,0,r4630721,,,,,
n3369459915,070033,珠市口(下行),珠市口,,39.8897724,116.391255,,,0,r15665232,,,,,
n3369458281,070031,虎坊桥(下行),虎坊桥,,39.8884561,116.3773816,,,0,r4630727,,,,,
n3369459795,070029,菜市口(下行),菜市口,,39.8880335,116.3674923,,,0,r9736321,,,,,
n3369458291,070027,广安门内(下行),广安门内,,39.8886706,116.3517413,,,0,r4630718,,,,,
n3369459803,070025,达官营(下行),达官营,,39.8882751,116.3317051,,,0,r4630728,,,,,
n3369459901,070023,湾子(下行),湾子,,39.8889678,116.3213561,,,0,r4630723,,,,,
n3369459827,070021,北京西站(下行),北京西站,,39.8935403,116.3151394,,,0,r9803586,,,,,
n6127436886,080073,瀛海(上行),瀛海,,39.7598896,116.4427692,,,0,r9608205,,,,,
r9608205,080073,瀛海,瀛海,,39.7593594,116.4428265,,,1,,,,,,
n6127436614,080071,德茂(上行),德茂,,39.7717029,116.4351049,,,0,r9608204,,,,,
r9608204,080071,德茂,德茂,,39.7712874,116.4355574,,,1,,,,,,
n6127437127,080069,五福堂(上行),五福堂,,39.784167,116.416921,,,0,r9925414,,,,,
r9925414,080069,五福堂,五福堂,,39.7837675,116.4174105,,,1,,,,,,
n6127437130,080067,火箭万源(上行),火箭万源,,39.7984998,116.4124315,,,0,r9925413,,,,,
r9925413,080067,火箭万源,火箭万源,,39.797982,116.4124409,,,1,,,,,,
n6127437131,080065,东高地(上行),东高地,,39.8038365,116.402358,,,0,r9925412,,,,,
r9925412,080065,东高地,东高地,,39.8037787,116.4030681,,,1,,,,,,
n6127437133,080063,和义(上行),和义,,39.8141031,116.3959204,,,0,r9925409,,,,,
r9925409,080063,和义,和义,,39.8135634,116.3958329,,,1,,,,,,
n6127437136,080061,大红门南(上行),大红门南,,39.8361062,116.3949123,,,0,r9925411,,,,,
r9925411,080061,大红门南,大红门南,,39.8355481,116.3948539,,,1,,,,,,
n10716199276,080061,大红门南B出口,大红门南B出口,,39.8354561,116.3955063,,,2,r9925411,,,,,
n6127437138,900035,大红门(上行),大红门,,39.8435042,116.3945058,,,0,r9736313,,,,,
r9736313,900035,大红门,大红门,,39.8429511,116.3944459,,,1,,,,,,
n13288528524,900035,大红门C1出口,大红门C1出口,,39.8436684,116.3939603,,,2,r9736313,,,,,
n13288528529,900035,大红门E出口,大红门E出口,,39.8414688,116.395031,,,2,r9736313,,,,,
n6127437140,080057,海户屯(上行),海户屯,,39.8511894,116.3940968,,,0,r9608206,,,,,
r9608206,080057,海户屯,海户屯,,39.8506537,116.3940324,,,1,,,,,,
n6127437142,080055,木樨园(上行),木樨园,,39.8587133,116.3933501,,,0,r9608207,,,,,
r9608207,080055,木樨园,木樨园,,39.858181,116.3932245,,,1,,,,,,
n6127437144,140049,永定门外(上行),永定门外,,39.8652767,116.3931298,,,0,r9608209,,,,,
r9608209,140049,永定门外,永定门外,,39.8647562,116.3930393,,,1,,,,,,
n12616109620,140049,永定门外E出口,永定门外E出口,,39.8634801,116.3940171,,,2,r9608209,,,,,
n12616109621,140049,永定门外F出口,永定门外F出口,,39.8643598,116.3928693,,,2,r9608209,,,,,
n9346809407,080051,天桥(上行),天桥,,39.8811835,116.3925862,,,0,r9608208,,,,,
r9608208,080051,天桥,天桥,,39.8806517,116.3925037,,,1,,,,,,
n7149581578,080051,天桥C出口,天桥C出口,,39.8798917,116.3934794,,,2,r9608208,,,,,
n11708763977,080051,天桥D出口,天桥D出口,,39.880314,116.3921303,,,2,r9608208,,,,,
n13626238784,080051,天桥A出口,天桥A出口,,39.8811814,116.392095,,,2,r9608208,,,,,
n6127436966,070033,珠市口(上行),珠市口,,39.8891036,116.3923108,,,0,r4630725,,,,,
r4630725,070033,珠市口,珠市口,,39.8893117,116.3921937,,,1,,,,,,
n7589864648,070033,珠市口F出口,珠市口F出口,,39.8876554,116.3925151,,,2,r4630725,,,,,
n7589864649,070033,珠市口G出口,珠市口G出口,,39.8876076,116.3919485,,,2,r4630725,,,,,
n9379477276,020008,前门(上行),前门,,39.8975591,116.3940557,,,0,r13536003,,,,,
n9379477283,080045,王府井(上行),王府井,,39.9083866,116.4053258,,,0,r1603635,,,,,
n9379477286,080043,金鱼胡同(上行),金鱼胡同,,39.9152457,116.4049986,,,0,r13623457,,,,,
r13623457,080043,金鱼胡同,金鱼胡同,,39.9147047,116.4049246,,,1,,,,,,
n10679111415,080043,金鱼胡同A出口,金鱼胡同A出口,,39.9143011,116.4042873,,,2,r13623457,,,,,
n6172173743,080041,中国美术馆(上行),中国美术馆,,39.9235466,116.404639,,,0,r9925349,,,,,
r9925349,080041,中国美术馆,中国美术馆,,39.9236287,116.4045447,,,1,,,,,,
n6784165939,080041,中国美术馆A出口,中国美术馆A出口,,39.9231378,116.4034139,,,2,r9925349,,,,,
n6784165940,080041,中国美术馆B出口,中国美术馆B出口,,39.923209,116.4047936,,,2,r9925349,,,,,
n6784165941,080041,中国美术馆D1出口,中国美术馆D1出口,,39.9228078,116.4035376,,,2,r9925349,,,,,
n6784165947,080041,中国美术馆D2出口,中国美术馆D2出口,,39.9227975,116.4040655,,,2,r9925349,,,,,
n3058767839,060039,南锣鼓巷(上行),南锣鼓巷,,39.9323497,116.3976874,,,0,r4010361,,,,,
r4010361,060039,南锣鼓巷,南锣鼓巷,,39.9323094,116.3976888,,,1,,,,,,
n4400766338,060039,南锣鼓巷F出口,南锣鼓巷F出口,,39.9322631,116.3976361,,,2,r4010361,,,,,
n4400766341,060039,南锣鼓巷E出口,南锣鼓巷E出口,,39.9322957,116.3966499,,,2,r4010361,,,,,
n3058767837,080037,什刹海(上行),什刹海,,39.9359542,116.3900901,,,0,r4010360,,,,,
r4010360,080037,什刹海,什刹海,,39.9359528,116.3900647,,,1,,,,,,
n8805687981,080037,什刹海A1出口,什刹海A1出口,,39.9364279,116.3896381,,,2,r4010360,,,,,
n8805687980,080037,什刹海A2出口,什刹海A2出口,,39.9368924,116.3896128,,,2,r4010360,,,,,
n2093005588,020017,鼓楼大街(上行),鼓楼大街,,39.9467319,116.3876936,,,0,r1650487,,,,,
r1650487,020017,鼓楼大街,鼓楼大街,,39.9467307,116.3876367,,,1,,,,,,
n4253043927,020017,鼓楼大街G出口,鼓楼大街G出口,,39.9454601,116.3879146,,,2,r1650487,,,,,
n5057476993,080033,安德里北街(上行),安德里北街,,39.9555723,116.3886127,,,0,r8066744,,,,,
r8066744,080033,安德里北街,安德里北街,,39.9554944,116.388548,,,1,,,,,,
n10137803561,080033,安德里北街D出口,安德里北街D出口,,39.95494,116.3886961,,,2,r8066744,,,,,
n2093005586,120039,安华桥(上行),安华桥,,39.967119,116.3885366,,,0,r2676663,,,,,
r2676663,120039,安华桥,安华桥,,39.9671117,116.3883984,,,1,,,,,,
n6813718730,120039,安华桥A出口,安华桥A出口,,39.9678158,116.3869742,,,2,r2676663,,,,,
n6813701180,120039,安华桥B出口,安华桥B出口,,39.9685599,116.3878982,,,2,r2676663,,,,,
n7605950426,120039,安华桥C出口,安华桥C出口,,39.9688612,116.3886756,,,2,r2676663,,,,,
n2358646254,120039,安华桥E出口,安华桥E出口,,39.9655315,116.3881039,,,2,r2676663,,,,,
n7605950427,120039,安华桥D2出口,安华桥D2出口,,39.9657954,116.3888669,,,2,r2676663,,,,,
n1352161813,100017,北土城(上行),北土城,,39.9764013,116.3880571,,,0,r8060604,,,,,
r8060604,100017,北土城,北土城,,39.9763987,116.3879263,,,1,,,,,,
n1718889799,100017,北土城F出口,北土城F出口,,39.9759362,116.3867044,,,2,r8060604,,,,,
n1718889797,100017,北土城E出口,北土城E出口,,39.9752273,116.3867224,,,2,r8060604,,,,,
n1718889798,100017,北土城D出口,北土城D出口,,39.9752469,116.3891466,,,2,r8060604,,,,,
n1718889800,100017,北土城C出口,北土城C出口,,39.9759589,116.3895141,,,2,r8060604,,,,,
n1718889804,100017,北土城B出口,北土城B出口,,39.9768112,116.3888632,,,2,r8060604,,,,,
n1718889802,100017,北土城A出口,北土城A出口,,39.9768073,116.3870386,,,2,r8060604,,,,,
n1352161814,080027,奥体中心(上行),奥体中心,,39.9841376,116.3876868,,,0,r1653639,,,,,
r1653639,080027,奥体中心,奥体中心,,39.9841327,116.387583,,,1,,,,,,
n5911158125,080027,奥体中心B1出口,奥体中心B1出口,,39.9851606,116.3872753,,,2,r1653639,,,,,
n5911158126,080027,奥体中心B2出口,奥体中心B2出口,,39.9851656,116.3876963,,,2,r1653639,,,,,
n5911158124,080027,奥体中心C出口,奥体中心C出口,,39.9836029,116.3885281,,,2,r1653639,,,,,
n5911158123,080027,奥体中心D出口,奥体中心D出口,,39.9835758,116.3865658,,,2,r1653639,,,,,
n1352161815,150031,奥林匹克公园(上行),奥林匹克公园,,39.9993264,116.3869738,,,0,r8378088,,,,,
r8378088,150031,奥林匹克公园,奥林匹克公园,,40.0003857,116.3867559,,,1,,,,,,
n2820157301,150031,奥林匹克公园A出口,奥林匹克公园A出口,,40.000039,116.386242,,,2,r8378088,,,,,
n2819909701,150031,奥林匹克公园B出口,奥林匹克公园B出口,,39.99989,116.387486,,,2,r8378088,,,,,
n12176583949,150031,奥林匹克公园D出口,奥林匹克公园D出口,,39.9988879,116.3873276,,,2,r8378088,,,,,
n3049754233,150031,奥林匹克公园E出口,奥林匹克公园E出口,,39.99869,116.38607,,,2,r8378088,,,,,
n4403560124,150031,奥林匹克公园F出口,奥林匹克公园F出口,,40.0009946,116.3840325,,,2,r8378088,,,,,
n6813793816,150031,奥林匹克公园G出口,奥林匹克公园G出口,,40.0012419,116.387406,,,2,r8378088,,,,,
n4403560125,150031,奥林匹克公园H出口,奥林匹克公园H出口,,40.0000485,116.3849318,,,2,r8378088,,,,,
n1352161816,080023,森林公园南门(上行),森林公园南门,,40.0092004,116.3865179,,,0,r1653641,,,,,
r1653641,080023,森林公园南门,森林公园南门,,40.009195,116.3864002,,,1,,,,,,
n1346457391,080023,森林公园南门B出口,森林公园南门B出口,,40.009042,116.3868119,,,2,r1653641,,,,,
n1346457386,080023,森林公园南门A出口,森林公园南门A出口,,40.0090094,116.3858244,,,2,r1653641,,,,,
n1346457340,080023,森林公园南门D出口,森林公园南门D出口,,40.0082054,116.3858966,,,2,r1653641,,,,,
n1346457343,080023,森林公园南门C出口,森林公园南门C出口,,40.0082195,116.3868914,,,2,r1653641,,,,,
n2093005591,080021,林萃桥(上行),林萃桥,,40.0206718,116.366788,,,0,r2637824,,,,,
r2637824,080021,林萃桥,林萃桥,,40.0206001,116.3667905,,,1,,,,,,
n7603978078,080021,林萃桥A出口,林萃桥A出口,,40.0207891,116.3659139,,,2,r2637824,,,,,
n7603978079,080021,林萃桥C1出口,林萃桥C1出口,,40.0204201,116.3677876,,,2,r2637824,,,,,
n7603978077,080021,林萃桥D出口,林萃桥D出口,,40.0202556,116.3665659,,,2,r2637824,,,,,
n9471058656,080021,林萃桥C2出口,林萃桥C2出口,,40.020355,116.3685515,,,2,r2637824,,,,,
n2093005593,080019,永泰庄(上行),永泰庄,,40.0366857,116.3484,,,0,r2637826,,,,,
r2637826,080019,永泰庄,永泰庄,,40.0366785,116.3483302,,,1,,,,,,
n7606031905,080019,永泰庄A出口,永泰庄A出口,,40.0360996,116.3481626,,,2,r2637826,,,,,
n7606031906,080019,永泰庄C出口,永泰庄C出口,,40.0365765,116.3486146,,,2,r2637826,,,,,
n2093005592,080017,西小口(上行),西小口,,40.046083,116.3452168,,,0,r2637825,,,,,
r2637825,080017,西小口,西小口,,40.0460679,116.3451639,,,1,,,,,,
n9743653072,080017,西小口A出口,西小口A出口,,40.0460265,116.3448205,,,2,r2637825,,,,,
n11758318935,080017,西小口出口,西小口出口,,40.0456175,116.3449852,,,2,r2637825,,,,,
n9743653074,080017,西小口B出口,西小口B出口,,40.0463024,116.3453407,,,2,r2637825,,,,,
n8712102274,080017,西小口C出口,西小口C出口,,40.0449026,116.346451,,,2,r2637825,,,,,
n9743653073,080017,西小口D出口,西小口D出口,,40.0448279,116.345363,,,2,r2637825,,,,,
n2093005594,080015,育新(上行),育新,,40.0583464,116.34118,,,0,r2637827,,,,,
r2637827,080015,育新,育新,,40.058410620000004,116.34108529999999,,,1,,,,,,
n11298084827,080015,育新A出口,育新A出口,,40.0591703,116.3401283,,,2,r2637827,,,,,
n11298084824,080015,育新B出口,育新B出口,,40.0594552,116.3417387,,,2,r2637827,,,,,
n11298084825,080015,育新C出口,育新C出口,,40.0580167,116.3413533,,,2,r2637827,,,,,
n11298084826,080015,育新D出口,育新D出口,,40.0587028,116.3401834,,,2,r2637827,,,,,
n2093005590,080013,霍营(上行),霍营,,40.070441,116.3539423,,,0,r8048026,,,,,
r8048026,080013,霍营,霍营,,40.0704794,116.3538978,,,1,,,,,,
n7327249223,080013,霍营G4出口,霍营G4出口,,40.0686265,116.3550572,,,2,r8048026,,,,,
n1573019675,080013,霍营F2出口,霍营F2出口,,40.071303,116.3547888,,,2,r8048026,,,,,
n2093005589,080011,回龙观东大街(上行),回龙观东大街,,40.0797212,116.3573108,,,0,r2637823,,,,,
r2637823,080011,回龙观东大街,回龙观东大街,,40.0797507,116.3571849,,,1,,,,,,
n6781803090,080011,回龙观东大街A出口,回龙观东大街A出口,,40.0803728,116.3565144,,,2,r2637823,,,,,
n6781803089,080011,回龙观东大街B出口,回龙观东大街B出口,,40.0802834,116.3574963,,,2,r2637823,,,,,
n6781803087,080011,回龙观东大街C出口,回龙观东大街C出口,,40.0791489,116.3576393,,,2,r2637823,,,,,
n6781803088,080011,回龙观东大街D出口,回龙观东大街D出口,,40.0793295,116.356266,,,2,r2637823,,,,,
n3057144412,080009,平西府(上行),平西府,,40.08871,116.3442915,,,0,r4008864,,,,,
r4008864,080009,平西府,平西府,,40.0886607,116.3441902,,,1,,,,,,
n9212004780,080009,平西府D2出口,平西府D2出口,,40.0880914,116.3432723,,,2,r4008864,,,,,
n9212004781,080009,平西府D3出口,平西府D3出口,,40.0881076,116.3438033,,,2,r4008864,,,,,
n9212004782,080009,平西府D1出口,平西府D1出口,,40.0885196,116.3441409,,,2,r4008864,,,,,
n9212004783,080009,平西府B出口,平西府B出口,,40.0885705,116.3451899,,,2,r4008864,,,,,
n3057144414,080007,育知路(上行),育知路,,40.0865428,116.3204368,,,0,r4008865,,,,,
r4008865,080007,育知路,育知路,,40.086651653846154,116.32026447692307,,,1,,,,,,
n9136834259,080007,育知路D出口,育知路D出口,,40.0861269,116.3190915,,,2,r4008865,,,,,
n9136834260,080007,育知路A出口,育知路A出口,,40.0869556,116.3200349,,,2,r4008865,,,,,
n9136834261,080007,育知路B出口,育知路B出口,,40.0870256,116.3213851,,,2,r4008865,,,,,
n3057104138,940037,朱辛庄(上行),朱辛庄,,40.1029958,116.3076404,,,0,r9803577,,,,,
r9803577,940037,朱辛庄,朱辛庄,,40.103101357142855,116.30756871428571,,,1,,,,,,
n3057104137,940037,朱辛庄(下行),朱辛庄,,40.1029839,116.3075669,,,0,r2111074,,,,,
r2111074,940037,朱辛庄,朱辛庄,,40.103101357142855,116.30756871428571,,,1,,,,,,
n3057144413,080007,育知路(下行),育知路,,40.0864961,116.3204522,,,0,r4008865,,,,,
n3057144411,080009,平西府(下行),平西府,,40.0886466,116.3442647,,,0,r4008864,,,,,
n1842949166,080011,回龙观东大街(下行),回龙观东大街,,40.0797228,116.3571465,,,0,r2637823,,,,,
n1842949157,080013,霍营(下行),霍营,,40.0705298,116.3539379,,,0,r8048026,,,,,
n1842949163,080015,育新(下行),育新,,40.0583489,116.3410926,,,0,r2637827,,,,,
n1842949154,080017,西小口(下行),西小口,,40.046058,116.3450909,,,0,r2637825,,,,,
n1842949167,080019,永泰庄(下行),永泰庄,,40.0366744,116.3482692,,,0,r2637826,,,,,
n1842951841,080021,林萃桥(下行),林萃桥,,40.0205474,116.366792,,,0,r2637824,,,,,
n339097485,080023,森林公园南门(下行),森林公园南门,,40.0091958,116.3862915,,,0,r1653641,,,,,
n339097239,150031,奥林匹克公园(下行),奥林匹克公园,,39.999324,116.386751,,,0,r8378088,,,,,
n339098344,080027,奥体中心(下行),奥体中心,,39.9841326,116.3874758,,,0,r1653639,,,,,
n339098540,100017,北土城(下行),北土城,,39.9763986,116.3878002,,,0,r8060604,,,,,
n2093005585,120039,安华桥(下行),安华桥,,39.9671145,116.3882615,,,0,r2676663,,,,,
n5057476994,080033,安德里北街(下行),安德里北街,,39.9555696,116.3885073,,,0,r8066744,,,,,
n2093005587,020017,鼓楼大街(下行),鼓楼大街,,39.9467301,116.3875743,,,0,r1650487,,,,,
n3058767836,080037,什刹海(下行),什刹海,,39.9359524,116.3900389,,,0,r4010360,,,,,
n3058767838,060039,南锣鼓巷(下行),南锣鼓巷,,39.932274,116.3976896,,,0,r4010361,,,,,
n6172173726,080041,中国美术馆(下行),中国美术馆,,39.9231748,116.4044922,,,0,r9925349,,,,,
n9379477285,080043,金鱼胡同(下行),金鱼胡同,,39.9141698,116.4048484,,,0,r13623457,,,,,
n7377461290,080045,王府井(下行),王府井,,39.9073071,116.4051485,,,0,r1603635,,,,,
n9379477275,020008,前门(下行),前门,,39.897519,116.3936133,,,0,r13536003,,,,,
n6127436970,070033,珠市口(下行),珠市口,,39.8880272,116.3921589,,,0,r4630725,,,,,
n9346809406,080051,天桥(下行),天桥,,39.8801176,116.3924244,,,0,r9608208,,,,,
n6127437143,140049,永定门外(下行),永定门外,,39.8642443,116.3929582,,,0,r9608209,,,,,
n6127437141,080055,木樨园(下行),木樨园,,39.8576497,116.393095,,,0,r9608207,,,,,
n6127437139,080057,海户屯(下行),海户屯,,39.8501087,116.3939752,,,0,r9608206,,,,,
n6127437137,900035,大红门(下行),大红门,,39.842423,116.3943596,,,0,r9736313,,,,,
n6127437135,080061,大红门南(下行),大红门南,,39.8350141,116.3947905,,,0,r9925411,,,,,
n6127437134,080063,和义(下行),和义,,39.8130101,116.3957718,,,0,r9925409,,,,,
n6127437132,080065,东高地(下行),东高地,,39.8037279,116.4037872,,,0,r9925412,,,,,
n6127437129,080067,火箭万源(下行),火箭万源,,39.7974087,116.4124827,,,0,r9925413,,,,,
n6127437128,080069,五福堂(下行),五福堂,,39.7833673,116.4178866,,,0,r9925414,,,,,
n6127436640,080071,德茂(下行),德茂,,39.7709009,116.4359618,,,0,r9608204,,,,,
n6127436885,080073,瀛海(下行),瀛海,,39.7588098,116.4429323,,,0,r9608205,,,,,
n1771786893,950021,郭公庄(上行),郭公庄,,39.8133808,116.2960633,,,0,r2207110,,,,,
r2207110,950021,郭公庄,郭公庄,,39.8133778,116.2960281,,,1,,,,,,
n2091794152,090043,丰台科技园(上行),丰台科技园,,39.8237674,116.2912815,,,0,r2674576,,,,,
r2674576,090043,丰台科技园,丰台科技园,,39.8239138,116.2912488,,,1,,,,,,
n10855359641,090043,丰台科技园A出口,丰台科技园A出口,,39.8245685,116.2906708,,,2,r2674576,,,,,
n10855359643,090043,丰台科技园B出口,丰台科技园B出口,,39.8245222,116.2915626,,,2,r2674576,,,,,
n10855359640,090043,丰台科技园C出口,丰台科技园C出口,,39.8233676,116.2916163,,,2,r2674576,,,,,
n10855359645,090043,丰台科技园D出口,丰台科技园D出口,,39.8233212,116.2906574,,,2,r2674576,,,,,
n10855359644,090043,丰台科技园出口,丰台科技园出口,,39.8237018,116.2906111,,,2,r2674576,,,,,
n2091794176,090041,科怡路(上行),科怡路,,39.8308814,116.2914784,,,0,r2674579,,,,,
r2674579,090041,科怡路,科怡路,,39.8308852,116.2914302,,,1,,,,,,
n10855438675,090041,科怡路A出口,科怡路A出口,,39.8317046,116.2910386,,,2,r2674579,,,,,
n10855438673,090041,科怡路出口,科怡路出口,,39.8313712,116.2910356,,,2,r2674579,,,,,
n10855438676,090041,科怡路B出口,科怡路B出口,,39.8316915,116.2917859,,,2,r2674579,,,,,
n10855438678,090041,科怡路C出口,科怡路C出口,,39.8305437,116.291751,,,2,r2674579,,,,,
n10855438677,090041,科怡路出口,科怡路出口,,39.8308691,116.2917591,,,2,r2674579,,,,,
n10855438674,090041,科怡路D出口,科怡路D出口,,39.8305664,116.2910107,,,2,r2674579,,,,,
n2091794172,160069,丰台南路(上行),丰台南路,,39.8395745,116.2905368,,,0,r2674578,,,,,
r2674578,160069,丰台南路,丰台南路,,39.8395949,116.2906678,,,1,,,,,,
n2091794160,090037,丰台东大街(上行),丰台东大街,,39.8541717,116.287865,,,0,r2674577,,,,,
r2674577,090037,丰台东大街,丰台东大街,,39.8541721,116.2877862,,,1,,,,,,
n2091794211,140031,七里庄(上行),七里庄,,39.8660248,116.2882357,,,0,r2674582,,,,,
r2674582,140031,七里庄,七里庄,,39.8652402,116.2881665,,,1,,,,,,
n12218813398,140031,七里庄出口,七里庄出口,,39.8644609,116.2878772,,,2,r2674582,,,,,
n12218813399,140031,七里庄出口,七里庄出口,,39.8644496,116.2883447,,,2,r2674582,,,,,
n12218813400,140031,七里庄出口,七里庄出口,,39.8654834,116.287974,,,2,r2674582,,,,,
n12218883501,140031,七里庄出口,七里庄出口,,39.8653527,116.2884758,,,2,r2674582,,,,,
n12218883502,140031,七里庄出口,七里庄出口,,39.8657732,116.2884954,,,2,r2674582,,,,,
n2091794192,900053,六里桥(上行),六里桥,,39.8792987,116.298141,,,0,r8047942,,,,,
r8047942,900053,六里桥,六里桥,,39.8786861,116.2968997,,,1,,,,,,
n10203953347,900053,六里桥B2出口,六里桥B2出口,,39.8807263,116.296409,,,2,r8047942,,,,,
n8345368892,900053,六里桥A出口,六里桥A出口,,39.8788895,116.295808,,,2,r8047942,,,,,
n8664623778,900053,六里桥B1出口,六里桥B1出口,,39.879523,116.297591,,,2,r8047942,,,,,
n8345368881,900053,六里桥C出口,六里桥C出口,,39.8791905,116.2983637,,,2,r8047942,,,,,
n8345368888,900053,六里桥D出口,六里桥D出口,,39.8786139,116.2982328,,,2,r8047942,,,,,
n8345368891,900053,六里桥F出口,六里桥F出口,,39.8778433,116.2966878,,,2,r8047942,,,,,
n8345368890,900053,六里桥E出口,六里桥E出口,,39.8776127,116.2971728,,,2,r8047942,,,,,
n2091794184,090031,六里桥东(上行),六里桥东,,39.885685,116.3088257,,,0,r2674580,,,,,
r2674580,090031,六里桥东,六里桥东,,39.8857143,116.308808,,,1,,,,,,
n12947578836,090031,六里桥东出口,六里桥东出口,,39.8856549,116.3087062,,,2,r2674580,,,,,
n12947578837,090031,六里桥东出口,六里桥东出口,,39.8855148,116.3098077,,,2,r2674580,,,,,
n2091794138,070021,北京西站(上行),北京西站,,39.8935357,116.3152836,,,0,r2674575,,,,,
r2674575,070021,北京西站,北京西站,,39.8935411,116.3151056,,,1,,,,,,
n12373722835,090027,军事博物馆(上行),军事博物馆,,39.906237,116.3153745,,,0,r8047903,,,,,
r8047903,090027,军事博物馆,军事博物馆,,39.9061218,116.3178241,,,1,,,,,,
n1654302294,090025,白堆子(上行),白堆子,,39.922573,116.319714,,,0,r2674573,,,,,
r2674573,090025,白堆子,白堆子,,39.9225738,116.3196813,,,1,,,,,,
n2091794134,060027,白石桥南(上行),白石桥南,,39.93239,116.319426,,,0,r2674574,,,,,
r2674574,060027,白石桥南,白石桥南,,39.9323878,116.3193762,,,1,,,,,,
n1364282598,160049,国家图书馆(上行),国家图书馆,,39.9418355,116.3190576,,,0,r1667222,,,,,
n1364282597,160049,国家图书馆(下行),国家图书馆,,39.9418329,116.319016,,,0,r1667222,,,,,
n2091794136,060027,白石桥南(下行),白石桥南,,39.9323912,116.3193043,,,0,r2674574,,,,,
n2091794128,090025,白堆子(下行),白堆子,,39.922574,116.319637,,,0,r2674573,,,,,
n2091794206,090027,军事博物馆(下行),军事博物馆,,39.9062609,116.3152709,,,0,r8047903,,,,,
n3692883748,070021,北京西站(下行),北京西站,,39.8935439,116.3149215,,,0,r2674575,,,,,
n2091794189,090031,六里桥东(下行),六里桥东,,39.8857391,116.308784,,,0,r2674580,,,,,
n2091794197,900053,六里桥(下行),六里桥,,39.8793528,116.2980991,,,0,r8047942,,,,,
n2091794219,140031,七里庄(下行),七里庄,,39.8660276,116.2881577,,,0,r2674582,,,,,
n2091794164,090037,丰台东大街(下行),丰台东大街,,39.8541729,116.2877145,,,0,r2674577,,,,,
n2091794168,160069,丰台南路(下行),丰台南路,,39.8395688,116.2904341,,,0,r2674578,,,,,
n2091794181,090041,科怡路(下行),科怡路,,39.8308858,116.291361,,,0,r2674579,,,,,
n2091794148,090043,丰台科技园(下行),丰台科技园,,39.8239841,116.2912057,,,0,r2674576,,,,,
n1771786892,950021,郭公庄(下行),郭公庄,,39.8133798,116.2959877,,,0,r2207110,,,,,
n2102414916,900051,西局(外环),西局,,39.8642908,116.2977923,,,0,r2690920,,,,,
r2690920,900051,西局,西局,,39.8652242,116.2978076,,,1,,,,,,
n3058978097,900049,泥洼(外环),泥洼,,39.8571974,116.2981484,,,0,r4010538,,,,,
r4010538,900049,泥洼,泥洼,,39.8573762,116.2981946,,,1,,,,,,
n3058978095,900047,丰台站(外环),丰台站,,39.8490275,116.2982976,,,0,r4010537,,,,,
r4010537,900047,丰台站,丰台站,,39.8496396,116.2975967,,,1,,,,,,
n2117226327,900045,首经贸(外环),首经贸,,39.8431392,116.3141425,,,0,r2709371,,,,,
r2709371,900045,首经贸,首经贸,,39.8431792,116.3140715,,,1,,,,,,
n6296910869,900045,首经贸D出口,首经贸D出口,,39.8430197,116.3134604,,,2,r2709371,,,,,
n6295446317,900045,首经贸C出口,首经贸C出口,,39.8426817,116.3143306,,,2,r2709371,,,,,
n6295454964,900045,首经贸B出口,首经贸B出口,,39.8437757,116.3144947,,,2,r2709371,,,,,
n11744202994,900045,首经贸出口,首经贸出口,,39.8434616,116.3103313,,,2,r2709371,,,,,
n11744202993,900045,首经贸出口,首经贸出口,,39.843467,116.3109011,,,2,r2709371,,,,,
n11744202996,900045,首经贸出口,首经贸出口,,39.8429748,116.3097896,,,2,r2709371,,,,,
